,City Name,City Country,City ID,City Lat,City Long,Temps (F),Humidity %,Cloudiness %,Windspeed (mph),City Datetime
0,hobart,AU,2163355,-42.88,147.33,80.6,34,40,8.05,1580268648
1,yulara,AU,6355222,-25.24,130.99,102.2,22,40,17.22,1580268905
2,longyearbyen,SJ,2729907,78.22,15.64,6.8,77,40,16.11,1580268882
3,vaini,TO,4032243,-21.2,-175.2,78.8,94,75,5.82,1580268862
4,krasnoselkup,RU,1502073,65.7,82.47,-5.85,97,98,10.92,1580269062
5,pevek,RU,2122090,69.7,170.31,-11.33,98,100,12.73,1580268892
6,ottumwa,US,4870380,41.02,-92.41,21.2,92,90,6.93,1580269063
7,bredasdorp,ZA,1015776,-34.53,20.04,66.2,88,100,4.81,1580268845
8,jamestown,US,5122534,42.1,-79.24,30.99,86,90,11.41,1580268736
9,albany,US,5106841,42.6,-73.97,32.0,76,90,13.87,1580268863
10,mataura,NZ,6201424,-46.19,168.86,55.99,91,96,14.0,1580268884
11,saskylakh,RU,2017155,71.92,114.08,-10.16,98,100,7.76,1580268915
12,punta arenas,CL,3874787,-53.15,-70.92,44.6,81,40,23.04,1580268628
13,bethel,US,5282297,41.37,-73.41,37.99,74,90,8.05,1580268866
14,geraldton,AU,2070998,-28.77,114.6,78.8,57,0,14.99,1580268870
15,kavieng,PG,2094342,-2.57,150.8,84.22,75,25,6.96,1580268861
16,bluff,NZ,2206939,-46.6,168.33,55.99,91,100,14.0,1580268893
17,thompson,CA,6165406,55.74,-97.86,10.4,85,90,8.05,1580268883
18,qaanaaq,GL,3831208,77.48,-69.36,-13.77,92,100,5.79,1580268892
19,ushuaia,AR,3833367,-54.8,-68.3,42.8,81,75,28.86,1580268657
20,faanui,PF,4034551,-16.48,-151.75,83.43,70,81,5.01,1580268900
21,dikson,RU,1507390,73.51,80.55,-18.06,95,100,14.38,1580268895
22,hermanus,ZA,3366880,-34.42,19.23,64.99,98,89,1.99,1580268673
23,barrow,US,5880054,71.29,-156.79,-27.4,74,1,3.36,1580268874
24,nishihara,JP,1855342,26.18,127.76,62.6,63,75,13.87,1580269074
25,port alfred,ZA,964432,-33.59,26.89,66.99,86,60,5.01,1580268871
26,mega,ET,331259,4.05,38.3,67.3,74,100,8.52,1580269075
27,tuktoyaktuk,CA,6170031,69.45,-133.04,-18.4,75,90,5.82,1580268868
28,khani,GE,610864,41.96,42.96,44.6,66,100,5.82,1580269076
29,atuona,PF,4020109,-9.8,-139.03,80.91,79,32,13.62,1580268844
30,aitape,PG,2101169,-3.14,142.35,82.85,76,0,12.71,1580269078
31,cherskiy,RU,2126199,68.75,161.3,-22.68,96,100,5.7,1580268942
32,calabozo,VE,3647444,8.92,-67.43,82.54,38,29,6.93,1580269079
33,sitka,US,5557293,57.05,-135.33,39.2,80,90,17.22,1580268876
34,dingle,PH,1714733,11.0,122.67,84.04,68,21,7.18,1580268932
35,saint-philippe,RE,935215,-21.36,55.77,75.2,60,20,6.93,1580268663
36,salalah,OM,286621,17.02,54.09,64.4,22,0,14.99,1580268825
37,tiksi,RU,2015306,71.69,128.87,-15.88,87,99,6.51,1580268909
38,katsuura,JP,2112309,35.13,140.3,64.0,67,20,12.75,1580269083
39,hambantota,LK,1244926,6.12,81.12,71.6,100,75,2.24,1580268890
40,kargil,IN,1267776,34.57,76.1,0.07,97,100,0.76,1580269084
41,itupiranga,BR,3397851,-5.13,-49.33,77.0,100,75,4.7,1580269085
42,san patricio,MX,3985168,19.22,-104.7,76.05,63,0,4.29,1580268930
43,mar del plata,AR,3430863,-38.0,-57.56,73.4,60,100,6.93,1580268879
44,rocha,UY,3440777,-34.48,-54.33,61.48,86,0,10.2,1580268935
45,rikitea,PF,4030556,-23.12,-134.97,79.79,78,100,6.22,1580268862
46,vardo,NO,777019,70.37,31.11,22.17,65,100,17.52,1580268893
47,aksarka,RU,1512019,66.56,67.8,-10.64,94,100,5.14,1580268902
48,estrela,BR,3463762,-28.06,-50.94,60.67,98,16,3.6,1580269089
49,east london,ZA,1006984,-33.02,27.91,62.6,59,0,9.17,1580268735
50,avarua,CK,4035715,-21.21,-159.78,78.8,88,84,8.05,1580268900
51,puerto ayora,EC,3652764,-0.74,-90.35,73.99,9,39,3.0,1580268876
52,upernavik,GL,3418910,72.79,-56.15,-14.35,94,74,7.23,1580268877
53,huarmey,PE,3939168,-10.07,-78.15,71.96,75,100,3.02,1580269092
54,kahului,US,5847411,20.89,-156.47,80.6,51,40,13.87,1580268978
55,sao felix do xingu,BR,3388847,-6.64,-51.99,71.04,97,83,1.52,1580268970
56,boksitogorsk,RU,575410,59.47,33.85,21.99,90,99,3.0,1580269095
57,airai,TL,1651810,-8.93,125.41,86.11,49,55,3.89,1580268925
58,teseney,ER,327651,15.11,36.66,62.26,75,0,5.82,1580269096
59,port elizabeth,ZA,964420,-33.92,25.57,68.0,77,75,13.87,1580268874
60,camacha,PT,2270385,33.08,-16.33,60.8,72,20,6.93,1580268748
61,chokurdakh,RU,2126123,70.63,147.92,-19.61,97,100,10.6,1580268868
62,los llanos de aridane,ES,2514651,28.66,-17.92,60.8,72,100,6.93,1580268943
63,kichera,RU,2022129,55.94,110.1,10.02,67,100,3.6,1580269100
64,laukaa,RU,533690,58.74,29.85,29.64,93,100,8.05,1580269100
65,grindavik,IS,3416888,63.84,-22.43,28.4,79,0,6.93,1580268891
66,hilo,US,5855927,19.73,-155.09,78.8,57,20,5.82,1580268602
67,marawi,PH,1701054,8.0,124.29,84.0,82,37,5.99,1580269102
68,arlit,NE,2447513,18.74,7.39,71.56,9,100,7.85,1580268682
69,khatanga,RU,2022572,71.97,102.5,-12.26,97,98,0.56,1580268853
70,haines junction,CA,5969025,60.75,-137.51,7.07,94,55,4.88,1580269105
71,estelle,US,4323873,29.85,-90.11,57.2,100,75,3.36,1580269106
72,ulety,RU,2014369,51.36,112.48,7.88,84,1,3.38,1580269106
73,biak,ID,1637001,-0.91,122.88,82.69,81,46,10.31,1580268958
74,provideniya,RU,4031574,64.38,-173.3,-5.8,58,2,2.24,1580268775
75,urucara,BR,3385670,-2.54,-57.76,76.55,83,18,1.72,1580269108
76,nelson bay,AU,2155562,-32.72,152.15,81.0,74,75,14.99,1580269109
77,sobolevo,RU,525426,54.43,31.9,29.57,95,100,11.61,1580269109
78,kampene,CD,214575,-3.6,26.67,67.26,95,100,1.95,1580268930
79,victoria,HK,1819729,22.29,114.16,57.99,46,0,12.75,1580268681
80,saint george,US,5546220,37.1,-113.58,46.0,48,1,1.39,1580268922
81,ubrique,ES,2510112,36.68,-5.45,55.4,100,76,3.36,1580269111
82,mount isa,AU,2065594,-20.73,139.5,77.0,100,90,13.87,1580269112
83,moindou,NC,2140466,-21.69,165.68,91.4,41,100,16.11,1580269113
84,bam,IR,141736,29.11,58.36,42.58,43,0,2.48,1580269113
85,touros,BR,3386213,-5.2,-35.46,78.8,88,40,2.24,1580268928
86,leningradskiy,RU,2123814,69.38,178.42,-7.01,95,100,3.51,1580268864
87,butaritari,KI,2110227,3.07,172.79,83.08,78,100,10.54,1580268823
88,sorland,NO,3137469,67.67,12.69,31.23,79,80,16.42,1580268980
89,tecoanapa,MX,3516171,16.52,-98.75,74.84,78,2,2.35,1580269118
90,bac,RS,3204692,45.39,19.24,35.01,100,75,20.8,1580269118
91,sistranda,NO,3139597,63.73,8.83,36.0,69,75,14.99,1580268973
92,ponta do sol,PT,2264557,32.67,-17.1,60.8,67,20,6.93,1580268947
93,pundaguitan,PH,1698289,6.37,126.17,81.63,78,88,6.08,1580269121
94,bathsheba,BB,3374083,13.22,-59.52,78.8,78,75,17.22,1580268932
95,hithadhoo,MV,1282256,-0.6,73.08,81.12,78,76,15.68,1580268876
96,zhezkazgan,KZ,1516589,47.8,67.71,-5.8,83,75,6.71,1580269122
97,yellowknife,CA,6185377,62.46,-114.35,-2.0,83,90,4.7,1580268714
98,ancud,CL,3899695,-41.87,-73.82,46.4,75,0,5.82,1580269123
99,muscat,OM,287286,23.61,58.59,59.0,72,20,6.93,1580269124
100,bengkulu,ID,1649150,-3.8,102.27,72.45,94,100,13.62,1580268903
101,kainantu,PG,2095038,-6.29,145.87,73.96,79,36,2.86,1580269125
102,new norfolk,AU,2155415,-42.78,147.06,80.6,34,40,8.05,1580268871
103,turtas,RU,1540475,58.94,69.13,-17.99,98,35,5.5,1580269126
104,humboldt,US,5565500,40.67,-123.92,50.0,93,90,3.36,1580269127
105,kodiak,US,5866583,57.79,-152.41,24.8,73,90,21.92,1580268658
106,san rafael,AR,3836669,-34.62,-68.33,69.93,65,100,7.25,1580269128
107,mackenzie,CA,6063191,55.3,-123.17,28.4,92,90,6.93,1580269129
108,lasa,IT,3175096,46.62,10.7,32.0,92,90,6.69,1580268984
109,santa cruz,BO,3904906,-17.8,-63.17,78.8,83,75,5.82,1580269130
110,algiers,DZ,2507480,36.75,3.04,46.4,93,100,4.7,1580269130
111,saldanha,ZA,3361934,-33.01,17.94,66.2,82,92,9.17,1580268861
112,lebu,CL,3883457,-37.62,-73.65,53.08,66,0,10.63,1580268866
113,sao geraldo do araguaia,BR,3388760,-6.4,-48.55,72.88,96,68,0.76,1580269132
114,kapaa,US,5848280,22.08,-159.32,78.8,61,1,3.36,1580268612
115,puerto madryn,AR,3840092,-42.77,-65.04,57.76,52,0,13.18,1580269133
116,erzin,TR,296852,36.96,36.2,50.0,100,75,3.36,1580269135
117,shitanjing,CN,1794971,39.23,106.34,29.86,53,0,2.8,1580269135
118,arraial do cabo,BR,3471451,-22.97,-42.03,77.77,90,32,5.01,1580268832
119,busselton,AU,2075265,-33.65,115.33,84.99,26,32,7.54,1580268601
120,sao filipe,CV,3374210,14.9,-24.5,71.13,67,11,18.39,1580268954
121,omboue,GA,2396853,-1.57,9.26,75.96,94,46,1.74,1580269138
122,portland,US,5746545,45.52,-122.68,50.0,87,75,10.29,1580268767
123,sol-iletsk,RU,491019,51.16,54.99,0.16,79,25,6.6,1580269140
124,batagay-alyta,RU,2027042,67.8,130.41,-9.83,82,100,6.06,1580269141
125,shache,CN,1280037,38.42,77.24,24.15,62,51,4.88,1580269141
126,miguel calmon,BR,3457202,-11.43,-40.59,68.81,91,87,2.8,1580269143
127,griffith,US,4920986,41.53,-87.42,32.0,79,90,3.53,1580269144
128,bolivar,US,4377835,37.61,-93.41,36.0,90,90,4.7,1580269144
129,berlevag,NO,780687,70.86,29.09,24.1,67,65,23.0,1580268917
130,kurilsk,RU,2123979,45.23,147.88,26.92,69,76,9.1,1580269145
131,ribeira grande,PT,3372707,38.52,-28.7,62.6,93,75,14.99,1580268864
132,kulykiv,UA,703716,50.31,24.82,35.22,97,100,6.73,1580269049
133,comodoro rivadavia,AR,3860443,-45.87,-67.5,62.6,49,20,13.87,1580269148
134,ossora,RU,2122389,59.24,163.07,19.26,95,100,6.8,1580269148
135,san cristobal,VE,3628473,7.77,-72.22,77.0,83,40,2.24,1580268942
136,iqaluit,CA,5983720,63.75,-68.51,-27.0,67,5,14.99,1580268863
137,oistins,BB,3373652,13.07,-59.53,78.8,78,75,17.22,1580268898
138,aklavik,CA,5882953,68.22,-135.01,-23.8,74,90,2.24,1580268685
139,maiduguri,NG,2331447,11.85,13.16,59.18,21,0,6.96,1580269152
140,viedma,AR,3832899,-40.81,-63.0,56.52,86,9,4.74,1580269083
141,santo antonio do sudoeste,BR,3449479,-26.07,-53.73,67.87,80,15,2.98,1580269154
142,tasiilaq,GL,3424607,65.61,-37.64,30.2,80,100,23.04,1580268957
143,lompoc,US,5367788,34.64,-120.46,62.01,71,1,9.17,1580268875
144,ostrovnoy,RU,556268,68.05,39.51,3.87,93,18,4.25,1580268885
145,college,US,5859699,64.86,-147.8,-20.99,73,20,4.54,1580269156
146,tiznit,MA,2527087,29.58,-9.5,54.82,30,0,6.71,1580268862
147,tilichiki,RU,2120591,60.47,166.1,17.89,95,100,4.07,1580268878
148,malanje,AO,2239862,-9.54,16.34,63.21,96,100,7.25,1580268952
149,naze,JP,1855540,28.37,129.48,64.4,55,75,12.75,1580268720
150,castro,BR,3466704,-24.79,-50.01,63.79,99,33,5.88,1580268938
151,fairbanks,US,5861897,64.84,-147.72,-17.0,73,20,4.7,1580268948
152,dagana,MR,2246550,16.52,-15.51,77.14,9,33,10.09,1580269163
153,lincoln,US,5072006,40.8,-96.67,30.0,92,90,5.82,1580268909
154,petropavlovsk-kamchatskiy,RU,2122104,53.05,158.65,26.6,68,17,2.24,1580268983
155,yuxia,CN,1785572,34.06,108.63,41.0,48,0,2.24,1580269165
156,pavilosta,LV,456827,56.89,21.19,39.2,100,99,8.05,1580269165
157,cape town,ZA,3369157,-33.93,18.42,68.0,100,75,8.05,1580268610
158,chifeng,CN,2038067,42.27,118.96,19.96,58,99,14.05,1580269002
159,kaitangata,NZ,2208248,-46.28,169.85,62.01,84,100,8.01,1580268880
160,beringovskiy,RU,2126710,63.05,179.32,0.23,95,96,3.24,1580269167
161,yar-sale,RU,1486321,66.83,70.83,-6.77,92,100,20.31,1580268904
162,kuching,MY,1735634,1.55,110.33,78.8,94,75,2.24,1580269169
163,hofn,IS,2630299,64.25,-15.21,38.52,59,61,15.23,1580269169
164,georgetown,MY,1735106,5.41,100.34,87.8,43,20,9.17,1580268574
165,narsaq,GL,3421719,60.92,-46.05,10.4,78,38,4.7,1580268886
166,srednekolymsk,RU,2121025,67.45,153.68,-29.76,96,0,8.86,1580268884
167,dasoguz,TM,601734,41.84,59.97,26.6,85,0,9.17,1580269171
168,darhan,MN,2031964,49.49,105.92,4.71,84,0,8.23,1580269172
169,mitsamiouli,KM,921786,-11.38,43.28,82.62,76,100,9.35,1580269173
170,port-gentil,GA,2396518,-0.72,8.78,82.67,77,20,7.07,1580268963
171,chicama,PE,3698359,-7.84,-79.15,73.4,78,75,9.17,1580269174
172,klaksvik,FO,2618795,62.23,-6.59,32.0,65,0,3.36,1580268865
173,nome,US,5870133,64.5,-165.41,-15.0,62,1,5.28,1580268785
174,coquimbo,CL,3893629,-29.95,-71.34,64.4,82,90,4.7,1580268870
175,pandan,PH,1695546,14.05,124.17,80.08,73,86,5.19,1580268943
176,talnakh,RU,1490256,69.49,88.4,8.6,78,100,8.95,1580268870
177,uvira,CD,204405,-3.41,29.15,52.18,98,100,2.13,1580269177
178,hanstholm,DK,2620786,57.12,8.62,39.99,90,93,15.01,1580269178
179,kendari,ID,1640344,-3.94,122.5,87.31,71,100,3.49,1580269178
180,cidreira,BR,3466165,-30.18,-50.21,74.75,83,57,19.71,1580268940
181,samarai,PG,2132606,-10.62,150.67,89.78,57,23,7.02,1580268933
182,bambous virieux,MU,1106677,-20.34,57.76,75.0,94,75,1.97,1580268936
183,cuitlahuac,MX,3529911,18.82,-96.72,75.2,88,5,3.67,1580269181
184,petrolina,BR,3392242,-9.4,-40.5,78.8,78,25,4.7,1580269182
185,bundaberg,AU,2173323,-24.85,152.35,90.0,58,40,11.41,1580268983
186,neuquen,AR,3843123,-38.95,-68.06,68.0,34,0,10.29,1580268892
187,cabo san lucas,MX,3985710,22.89,-109.91,66.2,77,5,4.7,1580268898
188,phalaborwa,ZA,965528,-23.94,31.14,68.0,94,0,5.82,1580269184
189,ixtapa,MX,4004293,20.7,-105.2,73.4,73,40,1.16,1580269185
190,tezu,IN,1254709,27.92,96.17,61.2,39,0,2.93,1580269186
191,tsabong,BW,932987,-26.02,22.4,71.76,12,100,6.33,1580269186
192,yarada,IN,1252783,17.65,83.27,77.0,83,20,2.24,1580269187
193,teguldet,RU,1489822,57.31,88.17,19.36,95,100,5.68,1580269188
194,sur,OM,286245,22.57,59.53,62.26,52,0,8.16,1580268877
195,lapeer,US,4998842,43.05,-83.32,30.2,79,90,5.01,1580269190
196,sumenep,ID,1626099,-7.02,113.87,86.92,64,100,1.32,1580269190
197,roald,NO,3141667,62.58,6.13,37.0,59,100,4.7,1580269191
198,mahebourg,MU,934322,-20.41,57.7,75.0,94,75,1.9,1580268796
199,ilebo,CD,215976,-4.32,20.58,70.9,80,82,1.92,1580269192
200,opuwo,NA,3354077,-18.06,13.84,69.93,69,78,2.57,1580269193
201,kuryk,KZ,609919,43.2,51.65,45.27,70,29,23.96,1580269193
202,plainview,US,5131638,40.78,-73.47,39.99,51,90,10.29,1580269194
203,bonga,ET,341742,7.28,36.23,52.23,77,31,1.79,1580269194
204,kazachinskoye,RU,1504075,57.7,93.28,19.47,95,99,5.41,1580269195
205,chapais,CA,5919850,49.78,-74.85,3.2,84,75,6.93,1580268952
206,kashi,CN,1280849,39.45,75.98,23.0,57,20,11.18,1580269196
207,solnechnyy,RU,2016307,50.72,136.63,14.86,79,100,6.58,1580269197
208,saint-joseph,RE,6690296,-21.37,55.62,77.0,60,20,6.93,1580269197
209,carnarvon,AU,2074865,-24.87,113.63,80.6,74,40,19.46,1580268883
210,huilong,CN,1806840,31.81,121.66,51.01,36,0,1.01,1580268977
211,fuling,CN,1810979,29.7,107.39,47.93,63,3,2.35,1580269199
212,lishu,CN,2036055,43.3,124.33,8.26,93,100,10.07,1580269200
213,lagoa,PT,3372964,39.05,-27.98,62.64,91,12,22.48,1580268758
214,aragarcas,BR,3471840,-15.9,-52.25,71.69,96,34,5.08,1580269202
215,inuvik,CA,5983607,68.35,-133.72,-23.8,74,90,2.24,1580268947
216,espana,PH,1713797,12.38,122.5,78.87,80,53,8.72,1580269204
217,cerritos,US,5335663,33.86,-118.06,66.2,51,1,1.77,1580269205
218,yasnyy,RU,468657,51.03,59.87,-1.39,79,74,5.3,1580269206
219,qui nhon,VN,1568574,13.77,109.23,75.22,79,71,6.49,1580269207
220,chimore,BO,3920736,-16.98,-65.13,73.11,91,50,1.63,1580269207
221,layou,VC,3577879,13.2,-61.27,77.0,88,40,6.93,1580269208
222,ulyanovsk,RU,479119,54.0,48.0,14.0,85,90,11.18,1580269209
223,bardiyah,LY,80509,31.76,25.09,57.88,78,41,15.86,1580269209
224,trairi,BR,3386177,-3.28,-39.27,74.16,89,67,1.7,1580269210
225,adre,TD,245669,13.47,22.2,55.26,17,0,15.08,1580268963
226,palmer,US,4946620,42.16,-72.33,35.6,59,90,9.17,1580268651
227,luau,AO,876177,-10.71,22.22,64.42,98,100,3.15,1580269212
228,alihe,CN,2038665,50.57,123.72,11.89,70,0,2.8,1580269212
229,north myrtle beach,US,4589446,33.82,-78.68,43.0,93,1,1.01,1580269213
230,bowling green,US,4285268,36.99,-86.44,37.4,74,90,4.7,1580269213
231,burnie,AU,2173125,-41.07,145.92,75.99,52,18,8.99,1580268944
232,cayenne,GF,3382160,4.93,-52.33,80.6,83,90,8.05,1580268949
233,shaunavon,CA,6145425,49.65,-108.42,21.13,78,79,6.15,1580269215
234,itapora,BR,3464460,-22.08,-54.79,72.18,87,17,4.68,1580269216
235,santa fe,AR,3836277,-31.63,-60.7,81.0,60,100,4.0,1580269165
236,husavik,IS,2629833,66.04,-17.34,23.0,92,90,3.36,1580268912
237,forestville,US,4355274,38.85,-76.88,43.0,52,90,6.93,1580269217
238,san policarpo,PH,1688696,12.18,125.51,80.83,76,0,2.55,1580269218
239,vestmannaeyjar,IS,3412093,63.44,-20.27,34.66,66,0,7.29,1580269219
240,vilhena,BR,3924679,-12.74,-60.15,71.06,95,100,4.25,1580269219
241,axim,GH,2303611,4.87,-2.24,76.03,90,59,1.66,1580269220
242,erenhot,CN,2037485,43.65,111.98,16.7,82,92,2.01,1580268963
243,marzuq,YE,72181,14.4,46.47,49.53,36,0,1.9,1580269221
244,sortland,NO,3137405,68.69,15.42,27.0,62,100,21.92,1580269222
245,omsukchan,RU,2122493,62.53,155.8,-9.87,98,100,6.93,1580269222
246,severo-kurilsk,RU,2121385,50.68,156.12,25.9,85,100,3.33,1580268651
247,bilma,NE,2446796,18.69,12.92,64.15,8,100,7.85,1580268964
248,nikolskoye,RU,546105,59.7,30.79,30.2,92,90,11.18,1580268879
249,port blair,IN,1259385,11.67,92.75,75.2,73,20,2.24,1580268922
250,chuy,UY,3443061,-33.7,-53.46,68.63,85,0,13.29,1580268931
251,tacuarembo,UY,3440034,-31.73,-55.98,70.72,57,100,3.27,1580268967
252,shingu,JP,1847947,33.73,135.98,53.6,71,75,16.11,1580268882
253,zhongshu,CN,1784310,24.52,103.77,39.27,97,100,3.62,1580269230
254,tiarei,PF,4033356,-17.53,-149.33,82.4,78,75,16.11,1580268901
255,torbay,CA,6167817,47.67,-52.73,30.0,100,90,5.82,1580268909
256,kaabong,UG,233093,3.48,34.15,62.64,94,100,4.9,1580269232
257,mezen,RU,527321,65.85,44.24,-2.76,90,77,5.95,1580269233
258,westport,US,4845585,41.14,-73.36,39.2,55,90,4.7,1580269134
259,brekstad,NO,3160100,63.69,9.67,36.0,69,75,14.99,1580269234
260,laguna,US,5364271,38.42,-121.42,55.4,81,1,3.36,1580269234
261,asau,RO,686090,46.43,26.4,37.99,100,100,9.17,1580268885
262,ponta delgada,PT,3372783,37.73,-25.67,64.4,82,75,26.4,1580268868
263,casper,US,5820705,42.87,-106.31,30.2,74,90,16.11,1580269236
264,imphal,IN,1269771,24.82,93.95,60.8,67,20,1.12,1580269237
265,yatou,CN,1786855,37.15,122.38,37.71,70,77,16.15,1580269237
266,lerwick,GB,2644605,60.15,-1.15,35.6,80,33,5.82,1580269005
267,pitimbu,BR,3391889,-7.47,-34.81,78.8,88,40,3.36,1580269239
268,svetlyy,RU,485660,54.67,20.13,39.2,86,75,11.18,1580269239
269,coahuayana,MX,4013679,18.73,-103.68,64.4,88,5,3.65,1580269240
270,kabo,CF,2386042,7.7,18.63,66.34,22,25,3.87,1580269240
271,hasaki,JP,2112802,35.73,140.83,61.0,67,20,13.87,1580268928
272,dunedin,NZ,2191562,-45.87,170.5,66.99,73,100,1.99,1580268746
273,amahai,ID,1651591,-3.33,128.92,85.82,70,17,9.13,1580268966
274,vila velha,BR,3445026,-20.33,-40.29,82.0,94,75,8.05,1580268873
275,rovaniemi,FI,638936,66.5,25.72,12.2,85,90,12.75,1580269243
276,luderitz,NA,3355672,-26.65,15.16,65.01,78,0,27.81,1580268929
277,necochea,AR,3430443,-38.55,-58.74,64.99,99,100,3.0,1580268636
278,kirakira,SB,2178753,-10.45,161.92,83.01,78,100,2.19,1580269245
279,bud,US,4255151,39.45,-86.18,33.8,93,90,3.36,1580268960
280,gimli,CA,5961417,50.63,-96.99,14.0,94,100,3.94,1580269141
281,antalaha,MG,1071296,-14.9,50.28,79.29,72,55,6.11,1580268900
282,walvis bay,NA,3359638,-22.96,14.51,64.0,88,90,6.93,1580269247
283,bowen,AU,2174444,-20.02,148.23,87.01,74,90,12.75,1580269248
284,thinadhoo,MV,1337610,0.53,72.93,80.71,76,28,15.5,1580269157
285,pampierstad,ZA,966380,-27.78,24.69,62.6,19,62,2.51,1580269249
286,fortuna,US,5563839,40.6,-124.16,50.0,93,90,3.36,1580268862
287,okha,RU,2122614,53.57,142.95,7.47,86,0,9.48,1580268867
288,vila franca do campo,PT,3372472,37.72,-25.43,64.4,82,75,26.4,1580269251
289,ketchikan,US,5554428,55.34,-131.65,46.4,81,90,24.16,1580268784
290,belyy yar,RU,1510377,53.6,91.39,14.0,85,40,2.24,1580269252
291,goba,ET,336350,7.02,39.98,51.04,95,98,1.41,1580269252
292,the valley,AI,3573374,18.22,-63.06,78.8,83,20,4.7,1580268943
293,havoysund,NO,779622,71.0,24.66,14.0,78,20,31.09,1580269253
294,orange cove,US,5379533,36.62,-119.31,55.4,100,1,4.7,1580269255
295,menongue,AO,3347353,-14.66,17.69,60.96,97,28,4.63,1580269255
296,saint-augustin,CA,6137462,51.23,-58.65,10.85,88,0,9.64,1580269256
297,wasilla,US,5877641,61.58,-149.44,10.4,77,90,3.36,1580269256
298,tyler,US,4738214,32.35,-95.3,52.0,75,90,4.7,1580269257
299,ada,US,5583739,43.42,-116.13,39.99,86,75,6.93,1580269258
300,baiyin,CN,1817240,36.56,104.21,36.0,49,0,2.24,1580269258
301,port lincoln,AU,2063036,-34.73,135.87,89.6,25,0,13.87,1580268865
302,parthenay,FR,2988446,46.67,-0.42,46.0,100,75,11.41,1580269259
303,clyde river,CA,5924351,70.47,-68.59,-23.8,74,1,4.7,1580268918
304,kropotkin,RU,540761,45.44,40.58,45.03,86,100,11.43,1580269260
305,chalmette,US,4319518,29.94,-89.96,57.2,82,40,4.7,1580269261
306,hukuntsi,BW,933726,-24.0,21.75,70.7,38,0,7.54,1580269262
307,kilindoni,TZ,157429,-7.91,39.67,82.47,80,100,11.05,1580269262
308,constitucion,CL,3893726,-35.33,-72.42,53.24,81,10,7.31,1580268914
309,porto novo,BJ,2392087,6.5,2.6,77.0,94,59,2.24,1580269264
310,kem,RU,551145,64.96,34.58,12.27,93,100,9.08,1580269265
311,nanortalik,GL,3421765,60.14,-45.24,24.4,66,69,14.88,1580268890
312,montepuez,MZ,1037125,-13.13,39.0,67.86,98,100,3.02,1580269115
313,isangel,VU,2136825,-19.55,169.27,86.0,66,90,4.7,1580268959
314,natal,BR,3394023,-5.79,-35.21,80.6,83,40,6.93,1580269267
315,aykhal,RU,2027296,66.0,111.5,-2.2,84,66,6.71,1580269268
316,hulyaypole,UA,707898,47.67,36.26,39.34,92,100,7.85,1580269269
317,raudeberg,NO,3146487,61.99,5.14,37.4,64,100,5.82,1580269269
318,zambezi,ZM,895953,-13.54,23.1,64.8,95,89,3.91,1580269270
319,oktyabrskiy,RU,515879,54.48,53.47,0.18,93,100,4.92,1580268986
320,tuatapere,NZ,2180815,-46.13,167.68,55.99,91,100,14.0,1580268886
321,lubango,AO,3347762,-14.92,13.49,61.05,86,100,1.61,1580269271
322,goure,NE,2444219,13.98,10.27,61.59,8,36,9.35,1580268976
323,iringa,TZ,159071,-7.77,35.7,55.76,97,100,1.61,1580269273
324,mongoumba,CF,2384377,3.64,18.59,67.08,42,100,2.26,1580269275
325,aron,IN,1278365,24.38,77.42,58.12,65,0,5.68,1580269275
326,port moresby,PG,2088122,-9.44,147.18,89.6,70,40,11.41,1580268954
327,florianopolis,BR,6323121,-27.61,-48.5,75.2,94,75,2.24,1580269031
328,palu,ID,1633034,-0.89,119.87,82.72,68,51,2.48,1580269002
329,dafeng,CN,1814435,23.45,108.59,51.75,52,86,6.89,1580269279
330,vostok,RU,2013279,46.49,135.88,21.27,84,4,3.8,1580269279
331,aleksandrov gay,RU,583345,50.15,48.57,19.04,95,100,9.64,1580269280
332,opole,PL,3337495,50.5,18.0,36.0,81,64,7.0,1580269150
333,ilulissat,GL,3423146,69.22,-51.1,1.4,59,100,10.29,1580268891
334,san carlos de bariloche,AR,7647007,-41.15,-71.31,46.4,49,20,9.17,1580268669
335,hobyo,SO,57000,5.35,48.53,73.11,72,25,16.75,1580269283
336,marsh harbour,BS,3571913,26.54,-77.06,70.5,74,25,11.59,1580268965
337,umm kaddadah,SD,364933,13.6,26.69,55.02,20,0,11.5,1580269284
338,makakilo city,US,5850554,21.35,-158.09,80.6,61,20,9.17,1580268982
339,praia da vitoria,PT,3372760,38.73,-27.07,62.6,93,75,26.87,1580268896
340,nemuro,JP,2128975,43.32,145.57,30.2,74,75,8.05,1580268924
341,adrar,MR,2381972,20.5,-10.07,68.59,26,0,11.95,1580268987
342,listvyanskiy,RU,1500468,54.44,83.5,13.19,92,100,19.33,1580269287
343,barcelos,PT,2742416,41.54,-8.62,57.2,100,90,13.87,1580269288
344,okhotsk,RU,2122605,59.38,143.3,-5.03,70,0,13.33,1580268968
345,conde,BR,3385077,-7.26,-34.91,78.8,88,40,3.36,1580269289
346,jumla,NP,1283285,29.27,82.18,27.7,93,100,2.44,1580269290
347,rantepao,ID,1629974,-2.97,119.9,85.37,58,100,1.16,1580269290
348,brigantine,US,4500920,39.41,-74.36,39.2,48,90,11.41,1580269291
349,miandrivazo,MG,1059051,-19.52,45.47,75.43,85,100,1.32,1580269291
350,paciran,ID,1633442,-6.88,112.38,89.42,64,96,3.44,1580269292
351,san quintin,MX,3984997,30.48,-115.95,59.86,77,0,10.54,1580269292
352,jibuti,DJ,223816,11.5,42.5,73.4,78,90,19.13,1580269295
353,posyet,RU,2021644,42.65,130.8,29.66,59,100,11.99,1580269295
354,grand gaube,MU,934479,-20.01,57.66,75.0,94,75,5.91,1580269296
355,lorengau,PG,2092164,-2.02,147.27,84.0,79,76,14.38,1580268893
356,dovbysh,UA,709665,50.37,27.99,33.01,93,97,9.64,1580269297
357,guane,CU,3557758,22.2,-84.09,73.26,84,28,6.15,1580269297
358,bantry,IE,2966356,51.68,-9.45,39.2,86,20,14.99,1580269298
359,tianpeng,CN,1792916,30.99,103.94,53.01,100,40,1.86,1580269299
360,marsa matruh,EG,352733,31.35,27.25,60.37,68,100,18.68,1580269299
361,solone,UA,693231,48.21,34.87,39.2,93,90,6.71,1580269300
362,bend,US,5713587,44.06,-121.32,39.99,100,75,9.15,1580269291
363,senador jose porfirio,BR,3387928,-2.59,-51.95,74.57,95,18,3.76,1580269301
364,tevaitoa,PF,4033375,-16.78,-151.5,84.11,64,48,3.11,1580269301
365,skawina,PL,3085807,49.98,19.83,37.99,80,75,9.17,1580269302
366,hualmay,PE,3939761,-11.1,-77.61,71.01,80,100,3.65,1580269303
367,prince george,CA,6113365,53.92,-122.75,27.0,92,1,2.24,1580269015
368,maralal,KE,187725,1.1,36.7,61.77,84,79,7.38,1580269304
369,ulaanbaatar,MN,2028462,47.91,106.88,3.2,77,0,2.24,1580269096
370,bhaderwah,IN,1276358,32.98,75.72,30.24,97,100,2.44,1580269306
371,panguipulli,CL,3877348,-39.63,-72.33,55.4,62,0,6.93,1580269306
372,cabedelo,BR,3404558,-6.98,-34.83,78.8,88,40,3.36,1580269025
373,norman wells,CA,6089245,65.28,-126.83,-20.2,68,20,6.93,1580268930
374,veraval,IN,1253237,20.9,70.37,58.89,66,0,7.14,1580269308
375,adeje,ES,2522437,28.12,-16.73,63.0,43,100,3.36,1580269309
376,ibotirama,BR,3461525,-12.19,-43.22,70.39,95,100,2.95,1580269309
377,christchurch,NZ,2192362,-43.53,172.63,87.8,31,0,16.11,1580269266
378,te anau,NZ,2181625,-45.42,167.72,57.11,74,76,9.86,1580268929
379,lazaro cardenas,MX,4026082,17.96,-102.2,70.57,71,56,1.74,1580268916
380,mitu,CO,3674676,1.2,-70.17,73.47,93,100,2.37,1580269311
381,yarmouth,US,4956335,41.71,-70.23,37.4,55,90,3.36,1580269312
382,mabaruma,GY,3377301,8.2,-59.78,71.17,97,22,2.37,1580269312
383,tlaxcala,MX,3515359,19.42,-98.17,48.76,59,37,4.45,1580269205
384,sadovoye,RU,499535,47.78,44.51,33.03,95,100,13.27,1580269315
385,nanga eboko,CM,2225457,4.68,12.37,62.56,60,98,0.83,1580269315
386,camacupa,AO,3351014,-12.02,17.48,61.93,98,100,2.91,1580268906
387,namibe,AO,3347019,-15.2,12.15,75.15,77,100,7.81,1580268863
388,lhokseumawe,ID,1214658,5.18,97.15,74.34,89,100,4.5,1580269317
389,amapa,BR,3407762,1.0,-52.0,72.73,99,100,2.04,1580269318
390,providencia,MX,3991622,28.72,-111.58,64.99,36,5,6.93,1580269318
391,tarnova,RO,664957,46.32,21.8,39.2,100,100,11.41,1580269319
392,guerrero negro,MX,4021858,27.98,-114.06,63.46,65,0,19.69,1580269319
393,onufriyivka,UA,698479,48.91,33.45,37.78,97,100,3.74,1580269320
394,panaba,MX,3521972,21.28,-88.27,73.98,84,0,8.01,1580269320
395,esperance,AU,2071860,-33.87,121.9,71.6,73,90,8.05,1580268653
396,chernihiv,UA,710734,51.0,32.0,33.04,97,100,9.08,1580269322
397,luganville,VU,2136150,-15.53,167.17,86.0,74,75,5.82,1580269323
398,frontera,MX,3980180,26.93,-101.45,61.75,23,0,9.28,1580269324
399,ballina,AU,2177069,-28.87,153.57,95.0,62,50,9.17,1580268916
400,sompeta,IN,1255816,18.93,84.6,75.33,77,0,5.32,1580269325
401,deputatskiy,RU,2028164,69.3,139.9,-21.23,68,100,3.94,1580268973
402,pemangkat,ID,1631637,1.17,108.97,85.33,72,100,9.06,1580269070
403,ugoofaaru,MV,1337619,5.67,73.0,81.41,68,0,10.98,1580268977
404,tura,IN,1254046,25.52,90.22,68.85,51,39,2.48,1580269329
405,vanimo,PG,2084442,-2.67,141.3,83.05,77,0,13.56,1580268923
406,shetpe,KZ,608324,44.17,52.12,34.92,73,0,15.68,1580269331
407,shama,CN,7330663,33.61,104.29,29.61,53,0,3.22,1580269332
408,mandan,US,5690366,46.83,-100.89,27.0,92,90,5.82,1580269077
409,cururupu,BR,3401148,-1.83,-44.87,74.66,98,100,1.79,1580269333
410,tual,ID,1623197,-5.67,132.75,84.4,78,57,17.05,1580268930
411,tsaratanana,MG,1055059,-16.78,47.65,69.13,96,100,0.54,1580269334
412,palana,RU,2122262,59.12,159.97,18.28,89,98,6.64,1580269334
413,praya,CV,3374333,14.92,-23.51,73.4,49,77,14.99,1580269335
414,porto franco,BR,3391371,-6.34,-47.4,74.32,90,82,2.17,1580269335
415,yuanping,CN,1786060,38.72,112.76,26.38,74,36,3.98,1580269336
416,bontang,ID,1648186,0.13,117.5,83.66,73,51,9.15,1580269337
417,kasempa,ZM,912628,-13.46,25.83,60.69,97,40,4.12,1580269338
418,roma,US,5134295,43.21,-75.46,28.99,79,90,11.41,1580268929
419,abu dhabi,AE,292968,24.47,54.37,57.2,87,0,2.24,1580269086
420,bubaque,GW,2374583,11.28,-15.83,76.98,75,42,9.51,1580268977
421,yinchuan,CN,1786657,38.47,106.27,30.52,52,0,3.33,1580269207
422,basirpur,PK,1183224,30.58,73.83,51.58,91,91,1.83,1580269341
423,arman,RU,2127060,59.7,150.17,6.69,95,100,7.74,1580269341
424,saint-leu,RE,6690297,-21.15,55.28,77.0,57,9,8.05,1580269342
425,usta muhammad,PK,1162868,28.18,68.04,54.43,44,0,5.66,1580269342
426,ust-nera,RU,2120048,64.57,143.2,-40.23,99,81,3.27,1580269343
427,turka,UA,690960,49.15,23.03,35.01,85,100,1.81,1580269343
428,casa grande,US,5288636,32.88,-111.76,59.0,61,1,3.36,1580269344
429,aden,YE,415189,12.78,45.04,71.71,70,49,13.22,1580269345
430,alice springs,AU,2077895,-23.7,133.88,89.6,35,75,17.22,1580268968
431,fomboni,KM,921889,-12.28,43.74,84.2,74,98,11.41,1580269346
432,snasa,NO,3138076,64.25,12.38,19.04,90,100,8.61,1580269346
433,qaqortoq,GL,3420846,60.72,-46.03,10.4,78,0,4.7,1580269347
434,inhambane,MZ,1045114,-23.86,35.38,75.56,64,0,6.11,1580269107
435,derzhavinsk,KZ,1524606,51.1,66.32,-9.45,93,0,5.32,1580269348
436,paka,MY,1734313,4.64,103.44,84.2,79,40,5.82,1580269349
437,nhulunbuy,AU,2064735,-12.23,136.77,89.6,59,100,12.75,1580268976
438,podosinovets,RU,508068,60.28,47.07,-1.66,91,98,7.7,1580269350
439,farafenni,GM,2413515,13.57,-15.6,69.78,32,30,4.76,1580269350
440,frutal,BR,3462916,-20.02,-48.94,71.78,91,26,5.88,1580269351
441,nouakchott,MR,2377450,18.09,-15.98,68.0,14,53,6.93,1580269351
442,mehamn,NO,778707,71.04,27.85,16.7,75,42,19.71,1580268873
443,cordeiro,BR,3465527,-22.03,-42.36,68.02,91,100,3.49,1580269354
444,urengoy,RU,1488414,65.97,78.37,-5.17,97,100,10.83,1580269354
445,monetnyy,RU,1498456,57.05,60.88,-7.6,91,20,4.47,1580269355
446,salinopolis,BR,3389822,-0.61,-47.36,82.22,78,64,14.36,1580269356
447,tolaga bay,NZ,2180991,-38.37,178.3,71.47,80,0,20.18,1580269356
448,itaituba,BR,3397967,-4.28,-55.98,74.12,96,96,2.17,1580268961
449,kirkwall,GB,2645198,58.98,-2.96,37.4,93,81,14.99,1580269358
450,pombia,IT,3170346,45.65,8.63,43.0,86,75,2.24,1580269358
451,guasdualito,VE,3804949,7.24,-70.73,81.48,50,29,4.76,1580269359
452,pedro ii,BR,3392431,-4.42,-41.46,71.01,91,37,0.31,1580269360
453,muros,ES,3115824,42.78,-9.06,60.01,100,90,9.17,1580268907
454,pendleton,US,5745380,45.67,-118.79,46.99,75,20,8.05,1580269361
455,pervomayskiy,RU,510911,53.25,40.29,23.4,97,70,6.73,1580269362
456,plettenberg bay,ZA,964712,-34.05,23.37,67.59,80,100,4.61,1580269362
457,chara,RU,2025630,56.91,118.26,-1.41,61,10,1.88,1580268978
458,martinis,RO,673731,46.23,25.38,28.99,94,100,1.59,1580269364
459,mount pleasant,US,4588165,32.79,-79.86,46.4,100,40,2.66,1580269364
460,launceston,AU,2160517,-41.45,147.17,80.01,47,1,19.46,1580268823
461,juneau,US,5554072,58.3,-134.42,39.2,69,90,12.75,1580269206
462,ellisras,ZA,1005768,-23.66,27.74,64.22,82,0,4.76,1580269366
463,pangody,RU,1495626,65.85,74.49,-6.74,95,100,15.73,1580269367
464,port hardy,CA,6111862,50.7,-127.42,44.6,81,90,21.92,1580268933
465,roura,GF,3380450,4.73,-52.33,80.6,83,90,8.05,1580269368
466,bloomington,US,5018739,44.84,-93.3,19.4,78,90,5.82,1580269259
467,yerofey pavlovich,RU,2012938,53.97,121.97,3.76,83,0,2.93,1580269369
468,nedjo,ET,330120,9.5,35.5,55.56,48,3,3.91,1580269370
469,keflavik,IS,3415496,64.0,-22.56,28.4,92,0,8.05,1580269371
470,san angelo,US,5530022,31.46,-100.44,44.6,65,1,4.7,1580269371
471,cervo,ES,3125287,43.67,-7.41,53.01,1,100,6.82,1580269372
472,chandler,US,5289282,33.31,-111.84,59.0,30,1,5.82,1580269372
473,matagami,CA,6067747,49.75,-77.63,3.2,91,90,9.17,1580269373
474,mahanub,PH,1693270,9.55,125.68,80.98,77,24,2.91,1580269374
475,boqueirao,BR,3405061,-7.5,-36.13,75.2,88,75,8.05,1580269374
476,alofi,NU,4036284,-19.06,-169.92,86.0,74,75,5.82,1580268913
477,hohhot,CN,2036892,40.81,111.65,8.6,92,20,4.47,1580269375
478,kuliyapitiya,LK,1238427,7.47,80.04,73.4,94,20,3.36,1580269376
479,egvekinot,RU,4031742,66.32,-179.17,-5.96,81,100,0.74,1580268917
480,kiama,AU,2161515,-34.68,150.87,84.99,45,20,11.41,1580269377
481,seoul,KR,1835848,37.57,126.98,50.0,49,90,4.25,1580268870
482,kawalu,ID,1640902,-7.38,108.21,84.79,62,76,3.13,1580268907
483,bagaces,CR,3624822,10.53,-85.25,78.8,88,75,3.36,1580269379
484,lanigan,CA,6049515,51.85,-105.03,17.64,97,96,0.67,1580269379
485,chiang rai,TH,1153669,19.91,99.83,66.0,63,0,4.7,1580269380
486,russell,US,4047434,32.35,-85.2,48.2,93,1,3.58,1580268574
487,goderich,CA,5962442,43.75,-81.72,32.0,79,93,1.01,1580269381
488,aboisso,CI,2293507,5.47,-3.21,74.66,92,66,0.96,1580269382
489,mandalgovi,MN,2030065,45.76,106.27,8.37,80,0,8.57,1580268965
490,grenfell,AU,2164457,-33.9,148.17,94.46,16,14,8.7,1580269383
491,tateyama,JP,1850523,34.98,139.87,62.6,72,20,18.34,1580269383
492,marathon,US,5261790,44.9,-89.77,21.99,73,90,3.47,1580269384
493,bintulu,MY,1737486,3.17,113.03,86.0,79,75,9.17,1580268899
494,zlitan,LY,2208485,32.47,14.57,55.89,56,0,7.45,1580269385
495,yumen,CN,1528998,40.28,97.2,26.4,32,0,11.25,1580268960
496,baykit,RU,1510689,61.67,96.37,9.23,96,100,2.82,1580269386
497,manosque,FR,2996180,43.83,5.79,50.0,81,99,5.82,1580269387
498,paamiut,GL,3421193,61.99,-49.67,14.74,56,83,13.04,1580268904
499,ihosy,MG,1064275,-22.4,46.12,65.21,94,62,3.83,1580269388
500,bonwapitse,BW,933471,-23.08,26.7,66.61,68,0,11.12,1580269389
501,nouadhibou,MR,2377457,20.93,-17.03,62.6,63,25,11.41,1580268906
502,acapulco,MX,3533462,16.86,-99.89,78.8,74,5,5.82,1580269390
503,houma,US,4328010,29.6,-90.72,57.99,87,40,6.93,1580269200
504,micheweni,TZ,153955,-4.97,39.83,81.07,85,20,12.28,1580268922
505,taltal,CL,3870243,-25.4,-70.48,62.87,90,0,2.46,1580269393
506,margate,GB,2643044,51.38,1.39,39.99,86,33,13.87,1580268906
507,marica,BR,3457708,-22.92,-42.82,78.8,88,40,5.82,1580269214
508,brenham,US,4676206,30.17,-96.4,54.0,66,1,11.41,1580269394
509,sherpur,BD,1337248,25.02,90.02,66.49,53,20,9.17,1580269395
510,komsomolskiy,UZ,1513491,40.43,71.72,32.0,79,0,4.7,1580268942
511,labuhan,ID,8079926,-6.88,112.21,87.22,66,92,2.73,1580268939
512,chama,CH,2661228,47.18,8.46,42.8,99,90,11.41,1580269397
513,zhigansk,RU,2012530,66.77,123.37,-16.74,95,100,25.79,1580268928
514,sarkand,KZ,1519691,45.41,79.92,17.44,95,100,2.35,1580269399
515,shimoda,JP,1852357,34.67,138.95,62.6,72,20,18.34,1580269400
516,batticaloa,LK,1250161,7.71,81.69,76.33,76,97,1.66,1580269400
517,smolenka,RU,2016405,52.14,113.5,1.4,84,13,2.24,1580269401
518,cascais,PT,2269594,38.7,-9.42,59.0,100,75,11.41,1580268961
519,sawakin,SD,367544,19.11,37.33,73.54,80,23,15.61,1580269402
520,verneuil-sur-seine,FR,2969796,48.97,1.96,43.0,80,75,6.93,1580269403
521,sorada,IN,1255712,19.75,84.43,75.27,71,0,1.21,1580269403
522,port augusta,AU,2063056,-32.5,137.77,102.99,20,0,9.17,1580269404
523,caceres,ES,2520610,39.52,-6.37,53.01,95,91,1.99,1580269405
524,kathmandu,NP,1283240,27.72,85.32,53.6,71,20,0.49,1580269144
525,saint-pierre,RE,935214,-21.34,55.48,77.0,57,18,8.05,1580269406
526,cockburn town,TC,3576994,21.46,-71.14,77.67,70,0,8.41,1580269393
527,faya,SA,110690,18.39,42.45,53.6,87,40,12.75,1580269407
528,northam,GB,2641434,51.03,-4.22,45.0,86,40,8.05,1580269408
529,fare,PF,4034496,-16.7,-151.02,83.01,73,62,6.49,1580269409
530,sokoto,NG,2322911,13.06,5.24,64.85,10,9,10.16,1580269409
531,hartford,US,4835806,41.77,-72.77,36.0,55,90,11.41,1580269267
532,hit,IQ,95788,33.64,42.83,52.23,60,90,8.21,1580269411
533,damghan,IR,138025,36.17,54.35,30.24,59,0,1.19,1580269412
534,muli,MV,1337617,2.92,73.57,80.37,74,1,14.05,1580269412
535,codrington,AU,2171099,-38.27,141.97,68.23,63,0,4.43,1580268926
536,novaya bryan,RU,2019009,51.72,108.27,-14.8,75,7,2.24,1580269413
537,manono,CD,209598,-7.3,27.42,67.46,98,100,3.02,1580269414
538,pochutla,MX,3517970,15.74,-96.47,78.8,74,20,11.39,1580269414
539,henties bay,NA,3356832,-22.12,14.28,64.0,89,49,1.01,1580268897
540,souillac,MU,933995,-20.52,57.52,75.0,94,75,1.9,1580268924
541,bandarbeyla,SO,64814,9.49,50.81,73.63,72,1,22.44,1580269417
542,meulaboh,ID,1214488,4.14,96.13,79.54,80,88,5.12,1580268964
543,klyuchi,RU,1503153,52.27,79.17,-8.68,94,100,14.25,1580269418
544,las vegas,US,5506956,36.17,-115.14,57.2,37,1,6.93,1580269323
545,sobral,BR,3387296,-3.69,-40.35,73.04,89,77,1.59,1580269420
546,essau,GM,2413533,13.48,-16.53,69.8,88,16,6.93,1580269420
547,ahuimanu,US,5856516,21.44,-157.84,80.6,74,75,10.29,1580269129
548,imbituba,BR,3461370,-28.24,-48.67,75.2,94,75,2.24,1580268907
549,kaeo,NZ,2189343,-35.1,173.78,82.0,71,58,5.01,1580268877
550,prince rupert,CA,6113406,54.32,-130.32,44.6,75,90,17.22,1580269422
551,yelan,RU,468063,50.95,43.74,34.0,97,100,8.99,1580269423
552,kidal,ML,2455290,18.44,1.41,67.5,11,2,6.82,1580269154
553,the pas,CA,6164499,53.83,-101.25,12.2,92,90,8.05,1580268949
554,oda,JP,1854774,35.18,132.5,51.8,66,75,16.11,1580269425
555,kamina,CD,214614,-8.74,24.99,63.86,95,100,3.4,1580269425
556,humaita,BR,3664078,-7.51,-63.02,75.11,96,100,1.77,1580269426
557,sinop,TR,739598,41.77,34.87,47.37,85,100,4.05,1580269426
558,port-cartier,CA,6111696,50.03,-66.87,3.99,83,5,2.24,1580269427
559,hare bay,CA,5970873,48.85,-54.01,23.0,100,90,6.93,1580269427
560,paracuru,BR,3393115,-3.41,-39.03,82.0,78,40,2.24,1580269428
561,kavaratti,IN,1267390,10.57,72.64,82.4,69,20,9.89,1580268951
562,gurupi,BR,3461724,-11.73,-49.07,72.95,96,100,1.88,1580269429
563,sehithwa,BW,933109,-20.47,22.72,76.96,53,100,6.49,1580269430
564,dakoro,NE,2446267,14.51,6.76,63.61,10,10,8.14,1580269430
565,karratha,AU,6620339,-20.74,116.85,85.69,75,87,10.18,1580269431
566,mackay,AU,2159220,-21.15,149.2,86.0,74,40,10.29,1580269431
567,port hedland,AU,2063042,-20.32,118.57,93.2,67,83,16.11,1580268913
568,waipawa,NZ,2206874,-41.41,175.52,71.6,73,20,14.99,1580268968
569,pacifica,US,5380420,37.61,-122.49,55.0,87,90,4.7,1580269435
570,swan river,CA,6160362,52.11,-101.27,12.25,97,97,3.24,1580269436
571,raha,IN,1259039,26.23,92.52,63.0,68,0,1.43,1580269436
572,kotka,FI,650950,60.47,26.92,32.0,87,90,16.11,1580269437
573,belaya gora,RU,2126785,68.53,146.42,-23.37,84,94,6.42,1580269437
574,roebourne,AU,2062276,-20.78,117.13,103.91,19,11,14.65,1580269438
575,tashtagol,RU,1490042,52.77,87.89,15.46,91,100,16.15,1580269438
576,lazo,RU,2020888,43.38,133.9,24.22,80,100,5.79,1580269439
577,male,MV,1282027,4.17,73.51,80.56,73,0,12.12,1580269439
578,vallenar,CL,3868633,-28.57,-70.76,60.94,88,16,1.97,1580269300
579,eyl,SO,60019,7.98,49.82,74.03,74,29,24.27,1580268965
580,half moon bay,US,5354943,37.46,-122.43,55.0,87,90,8.05,1580268896
581,cuamba,MZ,1047660,-14.8,36.54,66.0,98,96,2.19,1580269442
582,zaysan,KZ,1517060,47.47,84.87,15.26,79,97,3.36,1580269442
583,fort dodge,US,4857486,42.5,-94.17,17.6,92,90,8.05,1580269443
584,jeremie,HT,3723593,18.65,-74.12,65.35,91,44,1.72,1580269443
585,ilheus,BR,3461408,-14.79,-39.05,80.6,88,75,1.12,1580269444
586,padang,ID,1633419,-0.95,100.35,68.32,91,100,0.4,1580268738
587,banda aceh,ID,1215502,5.56,95.32,78.4,75,100,2.57,1580268820
588,havre-saint-pierre,CA,5972291,50.23,-63.6,-2.2,84,1,4.7,1580269446
589,chadan,RU,1508501,51.28,91.58,-4.81,96,100,2.8,1580269446
590,yeppoon,AU,2142316,-23.13,150.73,91.4,52,40,10.29,1580269347
591,tarko-sale,RU,1490085,64.92,77.78,-5.49,96,100,15.1,1580269447
592,camopi,GF,3382226,3.17,-52.32,72.36,98,61,2.51,1580269448
593,jamame,SO,56399,0.07,42.75,80.38,80,73,22.41,1580269449
594,tondon,GN,2414616,10.37,-13.35,65.88,94,94,1.99,1580269449
595,vancouver,CA,6173331,49.25,-123.12,46.99,93,75,6.69,1580269400
596,kefamenanu,ID,1640576,-9.45,124.48,86.36,57,95,5.48,1580269450
597,phalodi,IN,1259813,27.13,72.37,56.71,47,0,9.53,1580269451
598,khandyga,RU,2022773,62.67,135.6,-25.42,95,0,0.78,1580269451
599,luanda,AO,2240449,-8.84,13.23,80.6,83,75,4.7,1580268687
600,hay river,CA,5972762,60.82,-115.8,-0.4,77,90,4.7,1580269454
601,lavrentiya,RU,4031637,65.58,-171.0,-12.53,67,0,8.75,1580268871
602,salta,AR,3838233,-24.79,-65.41,71.6,88,66,6.93,1580269455
603,tokur,RU,2015217,53.13,132.9,4.32,83,0,1.97,1580269455
604,santa lucia,ES,2511150,27.91,-15.54,66.0,27,78,5.82,1580269456
605,aubenas,FR,3036418,44.62,4.39,45.0,86,100,4.7,1580269457
606,sagua la grande,CU,3541440,22.81,-80.08,69.8,100,75,2.24,1580268987
607,soyo,AO,2236967,-6.13,12.37,79.97,84,100,3.49,1580268918
608,san andres,CO,3670218,12.58,-81.7,78.8,74,20,3.36,1580269459
609,acari,PE,3948613,-15.43,-74.62,67.24,88,100,3.71,1580269459
610,conakry,GN,2422465,9.54,-13.68,75.13,88,0,7.58,1580269460
611,solikamsk,RU,491023,59.62,56.77,-21.73,98,78,3.96,1580269461
612,pisco,PE,3932145,-13.7,-76.22,77.0,73,90,4.7,1580268916
613,kloulklubed,PW,7671223,7.04,134.26,86.0,70,75,6.93,1580268919
614,puerto escondido,MX,3520994,15.85,-97.07,78.8,74,20,2.55,1580268938
615,xichang,CN,1789647,27.9,102.26,34.39,69,88,1.23,1580269463
616,alta floresta,BR,6316343,-9.88,-56.09,69.8,96,100,1.92,1580268954
617,gazanjyk,TM,161974,39.24,55.52,36.43,48,0,5.17,1580269464
618,fort nelson,CA,5955902,58.81,-122.7,-0.4,84,75,2.73,1580269464
619,slave lake,CA,6149374,55.28,-114.77,10.4,92,1,2.24,1580269465
620,kieta,PG,2094027,-6.22,155.63,85.32,69,13,3.02,1580269466
621,bethanien,NA,3358416,-26.5,17.16,64.96,24,6,2.86,1580269466
622,thunder bay,CA,6166142,48.4,-89.32,19.0,78,40,6.93,1580269467
623,ojinaga,MX,3994469,29.57,-104.42,51.8,32,1,9.17,1580268955
624,richards bay,ZA,962367,-28.78,32.04,70.88,83,79,13.44,1580269468
625,bilibino,RU,2126682,68.05,166.44,-7.35,99,100,4.72,1580269469
626,tomohon,ID,1623446,1.33,124.84,89.6,55,20,6.93,1580269470
627,paragominas,BR,3393106,-2.97,-47.48,72.73,97,57,2.55,1580269470
628,mozarlandia,BR,3456642,-14.74,-50.57,72.88,96,100,3.38,1580269471
629,ilanskiy,RU,1505933,56.24,96.06,22.77,94,100,4.45,1580269471
630,sakakah,SA,102527,29.97,40.21,48.2,61,22,13.87,1580268969
631,vuktyl,RU,470905,63.86,57.31,-14.42,96,98,7.2,1580269472
632,rabak,SD,368277,13.18,32.74,62.15,27,0,11.12,1580269473
633,kerrobert,CA,5991284,51.92,-109.13,16.0,92,90,2.24,1580269474
634,flin flon,CA,5954718,54.77,-101.86,10.67,96,100,4.47,1580269474
635,melville,US,5126555,40.79,-73.42,39.99,51,90,10.29,1580268807
636,yuyao,CN,1785545,30.05,121.15,52.0,56,75,8.95,1580269475
637,mao,ES,2514301,39.89,4.27,51.8,93,0,2.24,1580269476
638,playas,EC,3653015,-2.63,-80.38,76.05,78,36,4.85,1580269477
639,kita,ML,2455216,13.03,-9.49,68.22,6,53,3.85,1580269478
640,rawson,AR,3839307,-43.3,-65.1,59.77,59,0,17.94,1580269444
641,loandjili,CG,2258378,-4.76,11.86,78.8,100,75,6.76,1580269479
642,agadir,MA,2561668,30.42,-9.6,48.2,61,0,8.05,1580269479
643,mahibadhoo,MV,1337605,3.78,72.97,80.73,73,0,12.64,1580269480
644,asfi,MA,2537881,32.3,-9.24,51.22,53,37,3.98,1580268900
645,pouebo,NC,2138607,-20.4,164.57,80.11,67,84,3.04,1580269481
646,hamilton,US,4513583,39.18,-84.53,34.0,80,90,0.63,1580268896
647,fereydun kenar,IR,134602,36.69,52.52,35.6,80,0,4.7,1580269482
648,polunochnoye,RU,1494482,60.87,60.42,-12.39,90,4,3.15,1580269483
649,ode,NG,2328090,7.79,5.71,68.86,19,100,2.08,1580269483
650,kruisfontein,ZA,986717,-34.0,24.73,65.41,78,89,8.19,1580268892
651,seminole,US,4172445,28.71,-81.21,55.99,71,1,5.82,1580269484
652,mount gambier,AU,2156643,-37.83,140.77,89.6,17,0,9.17,1580269485
653,namwala,ZM,901766,-15.75,26.44,63.32,97,0,4.21,1580269486
654,altamira,BR,3407882,-3.2,-52.21,73.6,98,60,1.7,1580269306
655,linxia,CN,1803331,35.6,103.21,27.0,32,0,2.28,1580269487
656,verkhniye tatyshly,RU,475030,56.29,55.86,-14.89,99,100,4.29,1580269487
657,ishigaki,JP,1861416,24.34,124.16,60.8,77,75,12.75,1580269488
658,itauna,BR,3460584,-20.08,-44.58,67.42,97,100,3.6,1580269488
659,lewistown,US,5197850,40.6,-77.57,39.0,59,90,6.55,1580269363
660,whitehorse,CA,6180550,60.72,-135.05,24.8,79,75,19.46,1580269480
661,kalmunai,LK,1242110,7.42,81.82,79.61,72,65,11.61,1580269490
662,oranjemund,NA,3354071,-28.55,16.43,60.17,94,34,8.84,1580269437
663,saint anthony,US,5044290,45.02,-93.22,19.4,72,90,4.7,1580268897
664,puerto baquerizo moreno,EC,3652758,-0.9,-89.6,76.84,87,16,9.69,1580269492
665,caucaia,BR,3402429,-3.74,-38.65,82.0,78,40,2.24,1580269493
666,bure,ET,341397,10.7,37.07,56.28,38,0,3.15,1580269494
667,novi pazar,RS,787595,43.14,20.51,36.66,93,100,4.79,1580269495
668,niort,FR,2990354,46.33,-0.33,46.0,100,75,11.41,1580269495
669,uusikaupunki,FI,633221,60.8,21.41,36.0,93,90,11.41,1580269496
670,waitati,NZ,2179825,-45.75,170.57,66.99,70,100,4.0,1580269496
671,rutland,US,5240516,43.62,-73.02,30.2,92,90,8.05,1580269497
672,dawei,MM,1293625,14.08,98.2,71.58,71,43,4.29,1580269497
673,bitkine,TD,2435124,11.98,18.21,63.05,11,0,8.55,1580269499
674,pangnirtung,CA,6096551,66.15,-65.71,-28.75,88,7,4.25,1580269499
675,abu zabad,SD,380348,12.35,29.25,57.29,20,0,13.76,1580269500
676,avera,US,4231997,33.19,-82.53,46.99,93,1,2.62,1580268950
677,ende,ID,1644932,-8.84,121.66,84.81,79,88,13.82,1580269502
678,aleksandrovka,UA,713676,46.84,32.76,41.0,100,90,6.71,1580269502
679,tocopilla,CL,3869716,-22.09,-70.2,60.89,61,0,2.13,1580269503
680,hirekerur,IN,1270036,14.47,75.38,68.34,74,25,3.31,1580269503
681,ola,RU,2122574,59.58,151.28,8.69,93,100,1.81,1580269504
682,zyryanka,RU,2119283,65.75,150.85,-25.24,94,0,7.07,1580269505
