,City Name,City Country,City ID,City Lat,City Long,Temps (F),Humidity %,Cloudiness %,Windspeed (mph),City Datetime
0,albany,US,5106841,42.6,-73.97,41.0,76,90,6.93,1580068688
1,piritiba,BR,3453494,-11.73,-40.56,74.16,85,100,4.7,1580068968
2,port alfred,ZA,964432,-33.59,26.89,63.0,78,28,7.0,1580068969
3,qaanaaq,GL,3831208,77.48,-69.36,-10.25,56,4,5.14,1580068677
4,punta arenas,CL,3874787,-53.15,-70.92,57.2,47,20,32.21,1580068971
5,longyearbyen,SJ,2729907,78.22,15.64,1.4,84,0,1.12,1580068971
6,carnarvon,AU,2074865,-24.87,113.63,77.0,88,0,10.29,1580068972
7,mataura,NZ,6201424,-46.19,168.86,60.01,86,100,3.0,1580068972
8,ushuaia,AR,3833367,-54.8,-68.3,50.0,76,75,28.86,1580068804
9,port elizabeth,ZA,964420,-33.92,25.57,62.6,72,20,25.28,1580068806
10,hobart,AU,2163355,-42.88,147.33,59.0,54,90,5.82,1580068811
11,mogadishu,SO,53654,2.04,45.34,81.05,82,0,21.09,1580068975
12,tuktoyaktuk,CA,6170031,69.45,-133.04,-25.6,74,40,6.93,1580068702
13,padang,ID,1633419,-0.95,100.35,68.36,96,96,3.02,1580068976
14,nome,US,5870133,64.5,-165.41,-7.6,63,1,9.17,1580068978
15,chokurdakh,RU,2126123,70.63,147.92,-23.1,97,100,5.64,1580068978
16,mallaig,CA,6064804,54.22,-111.37,33.01,94,100,11.16,1580068979
17,barrow,US,5880054,71.29,-156.79,-23.8,74,40,11.41,1580068803
18,norman wells,CA,6089245,65.28,-126.83,-18.4,75,75,4.7,1580068980
19,mahebourg,MU,934322,-20.41,57.7,77.0,83,75,13.87,1580068981
20,belomorsk,RU,577922,64.52,34.77,10.94,92,98,11.54,1580068981
21,ayr,GB,2656708,55.46,-4.63,37.0,89,17,1.12,1580068982
22,nyurba,RU,2018735,63.28,118.33,-12.91,98,98,3.53,1580068982
23,khatanga,RU,2022572,71.97,102.5,-21.46,98,93,1.03,1580068983
24,bluff,NZ,2206939,-46.6,168.33,60.01,86,98,3.0,1580068984
25,busselton,AU,2075265,-33.65,115.33,69.01,41,0,11.36,1580068984
26,hermanus,ZA,3366880,-34.42,19.23,61.0,83,85,7.78,1580068985
27,vyartsilya,RU,470762,62.18,30.69,12.76,84,0,5.57,1580068985
28,bredasdorp,ZA,1015776,-34.53,20.04,60.8,63,56,8.05,1580068986
29,kavieng,PG,2094342,-2.57,150.8,83.16,74,0,5.46,1580068986
30,clovis,US,5338122,36.83,-119.7,61.0,87,90,9.17,1580068964
31,zyryanka,RU,2119283,65.75,150.85,-29.06,97,100,1.92,1580068988
32,dikson,RU,1507390,73.51,80.55,-2.99,96,100,4.05,1580068988
33,yellowknife,CA,6185377,62.46,-114.35,6.8,84,90,16.11,1580068752
34,butaritari,KI,2110227,3.07,172.79,82.83,81,100,16.6,1580068990
35,lac du bonnet,CA,6014443,50.25,-96.06,17.01,94,100,7.0,1580068991
36,pemberton,CA,6100799,50.32,-122.8,37.99,100,90,5.95,1580068730
37,svetlaya,RU,2015852,46.54,138.33,12.87,67,0,9.24,1580068992
38,birganj,NP,1283581,27.01,84.88,53.24,82,0,4.23,1580068993
39,puerto ayora,EC,3652764,-0.74,-90.35,80.6,78,90,2.24,1580068993
40,hvolsvollur,IS,3415720,63.75,-20.22,33.01,97,100,15.99,1580068994
41,hilo,US,5855927,19.73,-155.09,82.0,60,1,3.36,1580068807
42,new norfolk,AU,2155415,-42.78,147.06,59.0,54,90,5.82,1580068995
43,pevek,RU,2122090,69.7,170.31,-3.3,88,100,2.44,1580068995
44,atuona,PF,4020109,-9.8,-139.03,80.2,76,0,13.78,1580068996
45,shasta lake,US,5571109,40.68,-122.37,60.01,57,1,10.29,1580068997
46,armidale,AU,2177671,-30.52,151.65,66.24,91,33,5.53,1580068997
47,hithadhoo,MV,1282256,-0.6,73.08,80.83,77,100,3.56,1580068998
48,hurghada,EG,361291,27.26,33.81,57.2,54,2,10.29,1580068999
49,ulaangom,MN,1515029,49.98,92.07,-4.54,85,75,4.5,1580068984
50,hasaki,JP,2112802,35.73,140.83,37.4,74,75,8.05,1580068910
51,cidreira,BR,3466165,-30.18,-50.21,78.26,77,0,10.83,1580069003
52,salima,MW,924055,-13.78,34.46,74.23,75,75,3.47,1580069004
53,kahului,US,5847411,20.89,-156.47,78.8,50,20,20.65,1580069004
54,rikitea,PF,4030556,-23.12,-134.97,78.87,79,0,13.2,1580069005
55,meulaboh,ID,1214488,4.14,96.13,81.34,84,100,5.93,1580069006
56,coahuayana,MX,4013679,18.73,-103.68,75.2,57,40,8.3,1580069007
57,kongsberg,NO,6453373,59.67,9.65,43.0,100,90,19.46,1580069007
58,georgetown,MY,1735106,5.41,100.34,80.6,74,20,3.36,1580069008
59,narsaq,GL,3421719,60.92,-46.05,10.4,72,100,4.7,1580069008
60,zaysan,KZ,1517060,47.47,84.87,13.51,89,33,3.06,1580069009
61,ust-ilimsk,RU,2013952,58.0,102.66,7.34,95,77,5.7,1580069009
62,geraldton,AU,2070998,-28.77,114.6,62.6,93,40,6.93,1580069010
63,tiksi,RU,2015306,71.69,128.87,-32.82,73,0,2.46,1580069010
64,salalah,OM,286621,17.02,54.09,73.4,20,2,24.16,1580069011
65,aksarka,RU,1512019,66.56,67.8,-7.64,98,97,4.0,1580069012
66,alofi,NU,4036284,-19.06,-169.92,80.6,94,13,4.7,1580069012
67,taoudenni,ML,2450173,22.68,-3.98,75.69,22,0,9.98,1580069013
68,saskylakh,RU,2017155,71.92,114.08,-20.2,97,100,8.72,1580069013
69,pacasmayo,PE,3694178,-7.4,-79.57,77.16,71,100,15.39,1580069014
70,ewa beach,US,5855051,21.32,-158.01,80.01,65,75,9.17,1580069014
71,arraial do cabo,BR,3471451,-22.97,-42.03,84.2,65,0,12.75,1580069015
72,deputatskiy,RU,2028164,69.3,139.9,-34.4,87,67,2.8,1580069016
73,upernavik,GL,3418910,72.79,-56.15,-15.92,94,98,2.33,1580069016
74,kruisfontein,ZA,986717,-34.0,24.73,57.56,79,0,13.24,1580068727
75,fairbanks,US,5861897,64.84,-147.72,-13.0,73,100,3.27,1580069017
76,sembakung,ID,1627877,3.82,117.25,76.77,91,91,3.56,1580069018
77,kapaa,US,5848280,22.08,-159.32,77.0,69,40,3.36,1580069018
78,peniche,PT,2264923,39.36,-9.38,55.99,93,20,5.82,1580069019
79,luderitz,NA,3355672,-26.65,15.16,71.6,49,36,25.28,1580069020
80,lompoc,US,5367788,34.64,-120.46,64.99,82,90,10.29,1580068865
81,thompson,CA,6165406,55.74,-97.86,5.0,84,40,2.73,1580068991
82,drayton valley,CA,5942547,53.22,-114.99,30.78,80,89,7.09,1580069023
83,saint-philippe,RE,935215,-21.36,55.77,77.0,73,75,17.22,1580069023
84,san patricio,MX,3985168,19.22,-104.7,86.0,74,75,11.41,1580069024
85,banyumas,ID,1650095,-7.51,109.29,75.06,91,40,1.1,1580069024
86,tortoli,IT,2522890,39.93,9.66,51.8,100,5,10.29,1580069025
87,kodiak,US,5866583,57.79,-152.41,15.8,61,90,6.93,1580069026
88,vardo,NO,777019,70.37,31.11,19.4,62,75,39.15,1580069027
89,buraydah,SA,107304,26.33,43.98,42.8,75,0,3.29,1580069027
90,madaripur,BD,1337245,23.18,90.21,57.42,53,0,1.3,1580069028
91,vaini,TO,4032243,-21.2,-175.2,77.0,100,75,3.36,1580069028
92,manbij,SY,167357,36.53,37.95,35.6,74,58,11.59,1580069029
93,los llanos de aridane,ES,2514651,28.66,-17.92,64.4,63,20,5.82,1580069030
94,roald,NO,3141667,62.58,6.13,48.2,72,75,11.41,1580069031
95,el jicaro,GT,3596940,14.92,-89.9,80.46,42,2,4.09,1580069031
96,alexandria,EG,361058,31.22,29.96,55.4,66,20,3.36,1580068866
97,ostrovnoy,RU,556268,68.05,39.51,-0.85,98,77,11.36,1580069032
98,konstantinovka,RU,2021799,49.62,127.98,0.18,90,57,7.87,1580069033
99,olbia,IT,6540127,40.92,9.49,48.2,93,0,3.36,1580069033
100,toora-khem,RU,1489401,52.47,96.11,3.85,93,99,1.63,1580069034
101,port hardy,CA,6111862,50.7,-127.42,46.4,87,75,8.05,1580068825
102,san cristobal,VE,3628473,7.77,-72.22,78.8,74,75,4.7,1580069036
103,whitehorse,CA,6180550,60.72,-135.05,-0.99,76,75,5.32,1580069036
104,kaitangata,NZ,2208248,-46.28,169.85,64.99,70,100,5.1,1580069037
105,necochea,AR,3430443,-38.55,-58.74,70.0,71,83,14.0,1580068830
106,katete,UG,227592,-0.78,29.75,64.15,61,100,2.44,1580069038
107,pilar,BR,3392126,-9.6,-35.96,87.8,66,20,17.22,1580068848
108,cherskiy,RU,2126199,68.75,161.3,-20.2,88,100,2.13,1580069040
109,havre-saint-pierre,CA,5972291,50.23,-63.6,26.6,92,90,13.87,1580069040
110,xiaoweizhai,CN,1789945,26.19,107.51,32.63,89,80,6.64,1580069041
111,seohara,IN,1256832,29.22,78.58,51.87,84,0,5.3,1580069041
112,richards bay,ZA,962367,-28.78,32.04,78.46,83,86,37.0,1580069042
113,umm kaddadah,SD,364933,13.6,26.69,57.97,23,0,12.24,1580069042
114,ostersund,SE,2685750,63.18,14.64,30.99,100,90,19.46,1580069046
115,tual,ID,1623197,-5.67,132.75,83.64,72,100,7.4,1580069047
116,severo-kurilsk,RU,2121385,50.68,156.12,19.06,92,100,13.2,1580069047
117,seymchan,RU,2121373,62.88,152.43,-24.9,97,100,2.21,1580069048
118,berlevag,NO,780687,70.86,29.09,17.6,72,75,19.46,1580069049
119,moindou,NC,2140466,-21.69,165.68,73.4,78,82,2.24,1580069049
120,lancaster,US,5197085,40.25,-76.25,46.0,60,90,11.41,1580069050
121,ahipara,NZ,2194098,-35.17,173.17,70.0,100,0,1.99,1580069051
122,bengkulu,ID,1649150,-3.8,102.27,74.55,88,70,3.36,1580068808
123,kulhudhuffushi,MV,1337613,6.62,73.07,82.36,67,100,5.1,1580069052
124,san jose,US,5392171,37.34,-121.89,62.01,82,75,10.29,1580068901
125,ambilobe,MG,1082243,-13.2,49.05,75.34,92,100,4.45,1580069053
126,esperance,AU,2071860,-33.87,121.9,60.8,100,0,4.7,1580069053
127,marsh harbour,BS,3571913,26.54,-77.06,70.61,50,2,8.97,1580068803
128,castro,BR,3466704,-24.79,-50.01,79.25,48,0,0.81,1580069055
129,la ronge,CA,6050066,55.1,-105.28,21.2,92,90,8.05,1580069055
130,ciudad bolivar,VE,3645532,8.12,-63.55,91.17,29,100,6.91,1580069056
131,avarua,CK,4035715,-21.21,-159.78,80.6,94,100,12.75,1580069056
132,gorontalo,ID,1643837,0.54,123.06,74.55,95,44,2.42,1580069057
133,airai,TL,1651810,-8.93,125.41,67.48,92,32,2.13,1580069057
134,qaqortoq,GL,3420846,60.72,-46.03,10.4,72,100,4.7,1580069058
135,fomboni,KM,921889,-12.28,43.74,82.42,68,36,5.03,1580069059
136,nichinan,JP,1855476,31.6,131.37,63.5,90,100,38.88,1580069059
137,upington,ZA,945945,-28.45,21.26,71.6,28,0,14.99,1580069060
138,port shepstone,ZA,964406,-30.74,30.45,63.03,86,100,15.5,1580069060
139,tasiilaq,GL,3424607,65.61,-37.64,32.0,47,100,11.41,1580069061
140,itoman,JP,1861280,26.12,127.67,75.2,88,75,18.34,1580069061
141,cabo san lucas,MX,3985710,22.89,-109.91,77.0,73,75,5.82,1580068985
142,palamos,ES,3114566,41.85,3.13,52.0,87,75,2.01,1580069063
143,bam,IR,141736,29.11,58.36,46.9,37,0,14.67,1580069063
144,tanout,NE,2439155,14.97,8.89,64.85,13,33,12.01,1580069064
145,namatanai,PG,2090021,-3.67,152.43,83.68,75,6,10.31,1580069065
146,vestmannaeyjar,IS,3412093,63.44,-20.27,38.46,59,100,21.45,1580069065
147,jamestown,US,5122534,42.1,-79.24,34.0,92,90,10.29,1580069061
148,cahors,FR,3029212,44.42,1.33,48.0,87,67,3.36,1580069067
149,kibala,TD,2425791,9.11,18.35,78.8,26,33,4.83,1580069069
150,sorong,ID,1626542,-0.88,131.25,72.55,98,100,1.14,1580069069
151,constitucion,CL,3893726,-35.33,-72.42,69.6,64,31,13.78,1580069070
152,port pirie,AU,2063030,-33.18,138.02,68.0,82,75,12.75,1580069070
153,lazarev,RU,2123836,52.23,141.51,-9.83,76,0,7.27,1580069071
154,aleksandrov gay,RU,583345,50.15,48.57,20.52,89,0,11.81,1580069071
155,avera,US,4231997,33.19,-82.53,59.0,33,1,10.29,1580069072
156,sistranda,NO,3139597,63.73,8.83,42.01,93,75,6.93,1580069073
157,vila velha,BR,3445026,-20.33,-40.29,78.8,74,40,9.17,1580068941
158,anchorage,US,5879400,61.22,-149.9,-5.01,63,1,6.11,1580069070
159,bonfim,BR,3405215,3.08,-59.95,94.8,36,100,6.91,1580069074
160,cape town,ZA,3369157,-33.93,18.42,64.99,63,20,8.05,1580069075
161,kota belud,MY,1736660,6.35,116.43,79.0,88,75,3.36,1580069076
162,kavaratti,IN,1267390,10.57,72.64,80.29,66,22,2.95,1580069076
163,cotonou,BJ,2394819,6.37,2.42,78.8,61,20,2.24,1580069077
164,golcuv jenikov,CZ,3076098,49.82,15.48,32.0,79,90,3.36,1580069078
165,gushikawa,JP,1863495,26.35,127.87,75.2,94,90,18.34,1580069078
166,hobyo,SO,57000,5.35,48.53,79.47,77,68,18.99,1580069079
167,lebu,CL,3883457,-37.62,-73.65,68.9,50,6,12.35,1580069079
168,leningradskiy,RU,2123814,69.38,178.42,-8.77,94,100,13.76,1580069080
169,lavrentiya,RU,4031637,65.58,-171.0,-15.68,87,0,1.3,1580069080
170,arlit,NE,2447513,18.74,7.39,69.76,8,100,6.91,1580069081
171,mount isa,AU,2065594,-20.73,139.5,75.2,100,90,8.05,1580068804
172,henties bay,NA,3356832,-22.12,14.28,64.0,88,24,5.01,1580069083
173,antalaha,MG,1071296,-14.9,50.28,80.33,74,54,21.3,1580069084
174,palauig,PH,1696188,15.44,119.9,70.23,86,96,6.51,1580069084
175,lasa,IT,3175096,46.62,10.7,35.6,85,20,2.24,1580069085
176,krasnyy chikoy,RU,2012349,50.36,108.75,-1.3,93,45,0.76,1580069086
177,hamilton,US,4513583,39.18,-84.53,43.0,69,90,6.93,1580069050
178,xichang,CN,1789647,27.9,102.26,27.07,92,99,0.92,1580069087
179,price,US,5545269,39.6,-110.81,42.01,86,20,4.45,1580069087
180,pisco,PE,3932145,-13.7,-76.22,73.0,30,48,26.4,1580069088
181,manggar,ID,1636426,-2.88,108.27,81.21,79,72,4.79,1580069088
182,flin flon,CA,5954718,54.77,-101.86,19.4,85,90,1.88,1580069089
183,iqaluit,CA,5983720,63.75,-68.51,-27.0,60,20,11.41,1580069091
184,horsham,GB,2646557,51.06,-0.33,50.0,100,75,10.29,1580069092
185,bayanday,RU,2027004,53.07,105.51,5.41,84,58,4.54,1580069092
186,nemuro,JP,2128975,43.32,145.57,24.31,74,30,15.79,1580069093
187,jurado,CO,3680090,7.11,-77.76,81.27,79,67,13.02,1580069093
188,aklavik,CA,5882953,68.22,-135.01,-18.4,68,75,8.05,1580069094
189,bambous virieux,MU,1106677,-20.34,57.76,77.0,83,75,13.87,1580069094
190,katsuura,JP,2112309,35.13,140.3,44.6,56,75,11.41,1580069095
191,rawson,AR,3839307,-43.3,-65.1,60.89,55,0,11.59,1580069096
192,sitka,US,5557293,57.05,-135.33,42.8,81,90,12.75,1580069096
193,saldanha,ZA,3361934,-33.01,17.94,62.6,59,0,10.29,1580069097
194,provideniya,RU,4031574,64.38,-173.3,-5.8,70,13,4.47,1580069097
195,mali,GN,2417886,12.08,-12.3,79.34,8,47,5.97,1580069098
196,nijar,ES,2513222,36.97,-2.21,55.0,76,0,5.82,1580069098
197,hinton,CA,5975503,53.4,-117.59,26.78,84,100,6.31,1580068825
198,slave lake,CA,6149374,55.28,-114.77,19.4,92,1,10.29,1580069100
199,port blair,IN,1259385,11.67,92.75,77.2,63,89,10.78,1580068883
200,iquitos,PE,3696183,-3.75,-73.25,42.8,100,75,5.82,1580069081
201,trapani,IT,2522875,37.83,12.67,62.01,87,20,3.36,1580069101
202,gamba,GA,2400547,-2.65,10.0,79.07,83,100,2.3,1580069102
203,faanui,PF,4034551,-16.48,-151.75,83.07,74,100,11.05,1580069103
204,bud,US,4255151,39.45,-86.18,44.01,82,40,9.17,1580069103
205,ribeira grande,PT,3372707,38.52,-28.7,62.6,88,75,14.99,1580069104
206,mega,ET,331259,4.05,38.3,70.75,69,100,8.93,1580069104
207,kiomboi,TZ,157198,-4.27,34.37,65.61,92,100,0.67,1580069105
208,katherine,AU,2068655,-14.47,132.27,80.6,74,24,5.82,1580069106
209,victoria,HK,1819729,22.29,114.16,53.6,71,40,11.41,1580069106
210,bara,NG,2347758,10.37,10.73,69.13,19,0,7.72,1580069107
211,verkhnyaya inta,RU,1487332,65.98,60.31,-6.54,94,100,5.77,1580069107
212,lhanbryde,GB,2644540,57.62,-3.22,37.4,80,100,3.36,1580069108
213,suchedniow,PL,757886,51.05,20.83,32.0,1,100,6.08,1580069108
214,varlamovo,RU,477004,53.19,48.42,19.99,89,75,10.87,1580069109
215,vanimo,PG,2084442,-2.67,141.3,82.63,80,100,13.94,1580069110
216,seoul,KR,1835848,37.57,126.98,42.8,55,75,4.7,1580068985
217,nazarovo,RU,1497951,56.01,90.39,6.53,79,92,8.12,1580069111
218,zhangye,CN,1785036,38.93,100.45,19.69,60,0,0.69,1580069111
219,soyo,AO,2236967,-6.13,12.37,84.2,83,40,5.82,1580069112
220,ilulissat,GL,3423146,69.22,-51.1,10.4,60,91,9.17,1580069112
221,ponta do sol,PT,2264557,32.67,-17.1,62.6,63,40,3.36,1580069113
222,mar del plata,AR,3430863,-38.0,-57.56,77.0,53,68,12.75,1580068976
223,baghdad,IQ,98182,33.34,44.4,44.6,81,0,5.82,1580068946
224,palaikastron,GR,256155,35.2,26.25,59.0,70,100,8.01,1580069115
225,orlovskiy,RU,514796,46.87,42.06,31.77,85,0,6.78,1580069115
226,hofn,IS,2630299,64.25,-15.21,37.94,75,100,28.25,1580069116
227,souillac,MU,933995,-20.52,57.52,77.0,83,75,13.87,1580069117
228,kurchum,KZ,1521762,48.57,83.65,14.74,96,99,3.36,1580069117
229,anadyr,RU,2127202,64.75,177.48,12.2,78,100,13.42,1580069118
230,fortuna,US,5563839,40.6,-124.16,59.0,76,90,10.29,1580069118
231,chiredzi,ZW,893485,-21.05,31.67,76.87,53,0,5.88,1580069119
232,nikolskoye,RU,546105,59.7,30.79,32.0,85,75,8.95,1580069119
233,tourlaville,FR,2972270,49.64,-1.57,50.0,93,90,18.34,1580069120
234,clyde river,CA,5924351,70.47,-68.59,-18.4,68,75,14.99,1580069120
235,iguape,BR,3461465,-24.71,-47.56,80.49,58,0,5.68,1580069121
236,natal,BR,3394023,-5.79,-35.21,86.0,70,40,12.75,1580068909
237,panguna,PG,2088659,-6.32,155.48,74.68,88,99,1.32,1580069122
238,sept-iles,CA,6144312,50.2,-66.38,26.01,92,90,14.99,1580069123
239,bogorodskoye,RU,575521,56.55,37.88,35.49,99,100,18.54,1580069123
240,dogondoutchi,NE,2445553,13.64,4.03,72.03,9,0,10.76,1580069124
241,otavi,NA,3353934,-19.65,17.33,72.48,51,32,7.96,1580069124
242,cangzhou,CN,1816080,38.32,116.87,32.27,69,100,0.6,1580068895
243,skjervoy,NO,777682,70.03,20.97,10.4,66,100,16.11,1580069126
244,puri,IN,1259184,19.8,85.85,62.6,88,0,4.0,1580069126
245,sao jose da coroa grande,BR,3388456,-8.9,-35.15,81.81,81,58,14.67,1580069127
246,hualmay,PE,3939761,-11.1,-77.61,79.43,56,47,11.25,1580069127
247,portland,US,5746545,45.52,-122.68,55.0,76,75,11.41,1580069098
248,alice springs,AU,2077895,-23.7,133.88,73.4,20,24,4.7,1580069128
249,petropavlovsk-kamchatskiy,RU,2122104,53.05,158.65,23.0,92,75,6.71,1580069129
250,bethel,US,5282297,41.37,-73.41,46.4,52,90,11.41,1580069130
251,pithapuram,IN,1259508,17.12,82.27,75.09,79,48,6.76,1580069130
252,bourail,NC,2141714,-21.57,165.48,77.29,69,82,3.89,1580069131
253,saint george,US,5546220,37.1,-113.58,55.4,36,1,4.7,1580069131
254,nosy varika,MG,1058080,-20.58,48.53,73.94,72,100,2.62,1580069132
255,luwuk,ID,1637001,-0.95,122.79,81.37,80,41,3.78,1580069132
256,mayo,US,4362001,38.89,-76.51,48.99,60,40,5.82,1580069133
257,ayagoz,KZ,1525988,47.97,80.44,9.77,97,53,4.52,1580069134
258,bagotville,AU,2177254,-28.98,153.42,72.0,94,77,6.51,1580069134
259,salmo,CA,6139413,49.2,-117.27,39.0,90,100,1.86,1580069135
260,sangar,RU,2017215,63.92,127.47,-19.97,70,98,16.15,1580069135
261,dingle,PH,1714733,11.0,122.67,73.22,89,19,2.59,1580069136
262,nanortalik,GL,3421765,60.14,-45.24,22.42,70,100,14.45,1580069137
263,general roca,AR,3855065,-39.03,-67.58,89.6,19,0,6.93,1580069138
264,lazaro cardenas,MX,4026082,17.96,-102.2,82.11,55,51,9.24,1580069138
265,tolstoy-yurt,RU,482309,43.44,45.77,35.6,93,90,4.47,1580069139
266,maralal,KE,187725,1.1,36.7,67.05,74,100,11.16,1580069140
267,lorengau,PG,2092164,-2.02,147.27,83.41,80,75,10.56,1580069140
268,ponta delgada,PT,3372783,37.73,-25.67,62.6,88,20,11.41,1580069141
269,tuatapere,NZ,2180815,-46.13,167.68,60.01,86,88,3.0,1580069142
270,huntingdon,GB,2646393,52.33,-0.19,48.2,93,75,14.99,1580069142
271,iwanai,JP,2129868,42.97,140.51,24.31,80,100,6.71,1580069143
272,cedar city,US,5536630,37.68,-113.06,52.0,43,1,11.41,1580069003
273,zhuhai,CN,1790437,22.28,113.57,55.99,76,40,19.46,1580069032
274,talpa,MX,3991622,28.83,-111.63,78.01,41,5,3.56,1580069145
275,marsabit,KE,187585,2.33,37.99,77.56,68,100,9.53,1580069146
276,alim,PH,1731461,9.56,122.49,78.33,78,0,3.62,1580069146
277,villanueva de la serena,ES,2509553,38.98,-5.8,48.0,83,11,1.99,1580069147
278,moose factory,CA,6078372,51.26,-80.61,24.8,92,90,10.29,1580069147
279,ancud,CL,3899695,-41.87,-73.82,66.2,55,40,6.93,1580069148
280,almunecar,ES,2521847,36.73,-3.69,57.0,87,20,6.93,1580069149
281,havoysund,NO,779622,71.0,24.66,21.2,92,90,11.41,1580069149
282,beringovskiy,RU,2126710,63.05,179.32,15.22,87,100,3.96,1580069150
283,yulara,AU,6355222,-25.24,130.99,73.4,22,0,5.82,1580068865
284,lima,PE,3936456,-12.04,-77.03,82.4,65,1,14.99,1580069151
285,las varas,MX,3999162,21.17,-105.17,80.01,60,40,6.31,1580069151
286,goderich,CA,5962442,43.75,-81.72,35.01,83,100,3.0,1580069153
287,shelby,US,4657046,35.2,-89.87,52.0,81,90,11.41,1580069153
288,turayf,SA,101312,31.67,38.66,41.0,86,0,4.7,1580069154
289,plymouth,US,4947607,41.83,-70.83,48.2,49,40,14.99,1580068916
290,tafresh,IR,113636,34.69,50.01,25.86,59,0,8.46,1580069155
291,fukuma,JP,1863978,33.77,130.47,48.2,81,75,14.99,1580069155
292,khorinsk,RU,2022304,52.17,109.77,-2.88,93,18,1.72,1580069156
293,aguas formosas,BR,3472864,-17.08,-40.94,73.94,87,98,5.26,1580069157
294,camana,PE,3945985,-16.62,-72.71,72.43,73,100,10.96,1580069157
295,marzuq,YE,72181,14.4,46.47,57.94,42,65,9.46,1580069158
296,riyadh,SA,108410,24.69,46.72,48.2,57,0,5.82,1580068886
297,shache,CN,1280037,38.42,77.24,23.16,66,100,0.45,1580069159
298,namibe,AO,3347019,-15.2,12.15,75.06,77,0,8.3,1580069160
299,port hawkesbury,CA,6111867,45.62,-61.35,37.99,93,90,17.22,1580069160
300,hami,CN,1529484,42.8,93.45,9.82,71,99,1.36,1580069161
301,finnsnes,NO,3157549,69.23,17.98,21.0,78,100,2.24,1580069161
302,denison,US,4685892,33.76,-96.54,62.01,67,75,6.93,1580069130
303,mehamn,NO,778707,71.04,27.85,21.2,92,90,11.41,1580069162
304,floro,NO,3156980,61.6,5.03,44.6,81,75,25.28,1580069163
305,dudinka,RU,1507116,69.41,86.18,1.4,84,40,13.42,1580069164
306,sturgis,US,5011428,41.8,-85.42,34.0,98,90,11.41,1580069010
307,coihaique,CL,3894426,-45.58,-72.07,68.0,34,1,9.17,1580069165
308,qorveh,IR,119161,35.17,47.8,19.85,62,0,3.27,1580069165
309,kieta,PG,2094027,-6.22,155.63,80.65,77,100,5.5,1580069166
310,adrar,MR,2381972,20.5,-10.07,74.53,19,92,16.11,1580069166
311,chuy,UY,3443061,-33.7,-53.46,79.88,65,64,9.13,1580069167
312,batemans bay,AU,2176639,-35.72,150.18,66.99,87,45,1.41,1580069168
313,ginda,IN,1253628,30.69,78.49,38.48,43,0,4.23,1580069168
314,waingapu,ID,1622318,-9.66,120.26,83.43,75,0,3.67,1580069169
315,noumea,NC,2139521,-22.28,166.46,79.0,78,100,2.24,1580069086
316,laguna,US,5364271,38.42,-121.42,64.99,77,40,13.87,1580068987
317,camalu,MX,3979216,30.85,-116.07,63.77,63,24,11.07,1580069170
318,mortka,RU,1498402,59.33,66.02,6.53,96,100,5.59,1580069171
319,ambovombe,MG,1079048,-25.17,46.08,68.16,78,4,5.55,1580069172
320,awjilah,LY,88533,29.11,21.29,56.08,35,75,7.74,1580069173
321,half moon bay,US,5354943,37.46,-122.43,62.01,87,90,8.05,1580069174
322,weihai,CN,1791673,37.5,122.11,40.71,84,100,11.59,1580069175
323,kaniama,CD,214389,-7.57,24.18,69.55,92,100,1.68,1580069175
324,hirara,JP,1862505,24.8,125.28,69.01,80,73,28.01,1580069176
325,belaya gora,RU,2126785,68.53,146.42,-35.9,95,79,5.21,1580069176
326,mbalmayo,CM,2228079,3.52,11.5,68.0,72,26,3.36,1580069177
327,isangel,VU,2136825,-19.55,169.27,75.2,94,20,13.44,1580069178
328,eyl,SO,60019,7.98,49.82,78.84,77,40,31.25,1580069178
329,east london,ZA,1006984,-33.02,27.91,68.0,60,43,25.9,1580069179
330,dauphin,CA,5935341,51.15,-100.05,17.6,92,90,11.41,1580069179
331,oranjemund,NA,3354071,-28.55,16.43,62.22,68,0,21.56,1580069180
332,maragogi,BR,3395458,-9.01,-35.22,81.81,81,58,14.67,1580069180
333,abu dhabi,AE,292968,24.47,54.37,64.4,59,40,16.11,1580068913
334,mancio lima,BR,3663516,-7.61,-72.9,91.4,66,40,3.36,1580069181
335,charagua,BO,3921141,-19.8,-63.22,98.6,23,0,4.7,1580069183
336,sur,OM,286245,22.57,59.53,64.13,49,0,14.63,1580069184
337,george,ZA,1002145,-33.96,22.46,57.2,82,0,6.93,1580069184
338,santiago,CL,3871336,-33.46,-70.65,95.0,18,0,11.41,1580069185
339,bairiki,KI,7601762,1.33,172.98,82.4,83,75,4.7,1580069185
340,sungaipenuh,ID,1625929,-2.08,101.38,63.66,97,100,1.07,1580069186
341,yumen,CN,1528998,40.28,97.2,15.8,63,18,6.85,1580069187
342,tomakivka,UA,691435,47.82,34.74,33.8,80,40,4.47,1580069188
343,tutoia,BR,3385899,-2.76,-42.27,78.8,94,90,13.87,1580069188
344,zhob,PK,1162105,31.34,69.45,40.86,63,55,4.38,1580068901
345,waipawa,NZ,2206874,-41.41,175.52,68.0,93,41,26.4,1580068969
346,bilibino,RU,2126682,68.05,166.44,-7.08,94,99,2.35,1580069190
347,toshkivka,UA,691355,48.78,38.58,31.3,85,0,8.03,1580069190
348,boa vista,BR,3664980,2.82,-60.67,93.2,44,75,6.93,1580069191
349,auki,SB,2109701,-8.77,160.7,84.2,75,99,8.46,1580069192
350,torbay,CA,6167817,47.67,-52.73,32.0,80,40,11.41,1580069113
351,varnamo,SE,2664855,57.19,14.04,39.99,100,90,8.05,1580069193
352,talaja,IN,1255175,21.35,72.05,67.23,33,0,7.36,1580069194
353,morgan city,US,4333811,29.7,-91.21,55.4,93,90,8.05,1580069194
354,komsomolskiy,UZ,1513491,40.43,71.72,33.8,74,51,6.93,1580069195
355,wuwei,CN,1803936,37.93,102.64,17.49,83,0,1.19,1580069197
356,rantoul,US,4907131,40.31,-88.16,39.0,86,1,10.29,1580069094
357,berezovyy,RU,2026786,51.67,135.7,-4.32,80,2,4.97,1580069198
358,haines junction,CA,5969025,60.75,-137.51,-7.02,98,100,3.24,1580069198
359,bereda,ES,3105522,43.27,-7.54,55.99,81,75,16.11,1580069199
360,stykkisholmur,IS,3412888,65.08,-22.73,23.38,85,100,6.46,1580069201
361,nerang,AU,2155542,-27.98,153.33,77.0,88,75,5.82,1580069201
362,campbell river,CA,5914132,50.02,-125.24,50.0,71,75,16.11,1580069111
363,banes,CU,3567869,20.96,-75.72,78.8,65,75,4.7,1580069202
364,den helder,NL,2757220,52.96,4.76,46.4,93,90,16.11,1580069203
365,myronivka,UA,701031,49.66,30.98,30.85,92,0,6.11,1580069204
366,lagoa,PT,3372964,39.05,-27.98,62.33,83,97,14.54,1580069204
367,methven,NZ,2186895,-43.63,171.65,66.99,41,100,1.01,1580069205
368,teya,RU,1489656,60.38,92.63,6.85,92,100,6.08,1580069206
369,bandar,ID,1215498,2.05,99.75,73.6,99,100,2.19,1580069206
370,bandarbeyla,SO,64814,9.49,50.81,78.51,79,25,28.21,1580069207
371,beloha,MG,1067565,-25.17,45.05,72.0,68,9,8.81,1580069208
372,karratha,AU,6620339,-20.74,116.85,85.57,68,0,14.27,1580069209
373,pacific grove,US,5380437,36.62,-121.92,62.01,87,90,9.17,1580069156
374,tiarei,PF,4033356,-17.53,-149.33,87.8,66,40,16.11,1580069210
375,buala,SB,2109528,-8.14,159.59,81.34,77,100,4.97,1580069211
376,maniitsoq,GL,3421982,65.42,-52.9,12.31,72,100,2.62,1580069211
377,mongagua,BR,3456944,-24.09,-46.62,86.0,48,0,10.29,1580069212
378,dajal,PK,1180752,29.56,70.38,58.17,52,14,10.02,1580069213
379,penzance,GB,2640377,50.12,-5.54,50.0,100,20,6.93,1580069213
380,brae,GB,2654970,60.4,-1.35,44.6,75,100,10.29,1580069214
381,tocopilla,CL,3869716,-22.09,-70.2,72.19,49,1,10.96,1580069215
382,maningrida,AU,2067089,-12.07,134.27,84.33,84,100,18.21,1580069215
383,comodoro rivadavia,AR,3860443,-45.87,-67.5,69.8,28,0,16.11,1580069216
384,panjab,AF,1131162,34.39,67.02,-0.8,58,51,3.71,1580069217
385,cabedelo,BR,3404558,-6.98,-34.83,87.8,62,75,10.29,1580069218
386,dutlwe,BW,933787,-23.98,23.9,75.83,36,0,10.31,1580069219
387,alcantara,BR,3408073,-2.41,-44.41,84.2,83,75,14.99,1580069219
388,jibuti,DJ,223816,11.5,42.5,82.4,65,1,7.11,1580069220
389,san quintin,MX,3984997,30.48,-115.95,59.23,79,67,13.35,1580069038
390,boshkengash,TJ,1222107,38.47,68.81,33.8,100,0,4.47,1580069164
391,taree,AU,2147381,-31.9,152.47,73.0,100,4,3.36,1580069044
392,sinop,TR,739598,41.77,34.87,44.73,58,0,5.14,1580069222
393,chulman,RU,2025261,56.85,124.91,-2.87,96,100,2.37,1580069223
394,cabo rojo,PR,4562996,18.09,-67.15,82.0,71,75,10.29,1580069223
395,dickinson,US,4686163,29.46,-95.05,75.0,60,1,5.82,1580069224
396,guatire,VE,3639898,10.48,-66.54,80.6,82,40,5.82,1580069225
397,talnakh,RU,1490256,69.49,88.4,1.4,84,40,13.42,1580069225
398,tecoanapa,MX,3516171,16.52,-98.75,88.65,41,0,9.78,1580069226
399,yerofey pavlovich,RU,2012938,53.97,121.97,-7.64,98,98,0.6,1580069226
400,tenenkou,ML,2449938,14.46,-4.92,79.2,8,95,9.53,1580069227
401,micheweni,TZ,153955,-4.97,39.83,81.59,85,100,4.32,1580069227
402,todos santos,MX,3981432,23.45,-110.22,77.0,41,40,3.36,1580069228
403,ocampo,MX,3994535,21.65,-101.5,59.02,50,100,22.88,1580069229
404,te anau,NZ,2181625,-45.42,167.72,57.65,86,49,5.5,1580069142
405,kaeo,NZ,2189343,-35.1,173.78,70.0,100,1,1.99,1580069230
406,aleksandrovskoye,RU,582993,44.71,43.0,37.4,86,90,6.71,1580069231
407,kidal,ML,2455290,18.44,1.41,74.16,8,100,8.95,1580069231
408,dunedin,NZ,2191562,-45.87,170.5,64.99,71,100,6.53,1580069232
409,marystown,CA,6067472,47.17,-55.15,31.01,77,100,9.86,1580069233
410,mount gambier,AU,2156643,-37.83,140.77,48.2,100,75,2.24,1580069233
411,camacha,PT,2270385,33.08,-16.33,62.6,72,20,1.12,1580069234
412,kyaikto,MM,1317375,17.3,97.02,56.7,60,100,2.66,1580069235
413,mabaruma,GY,3377301,8.2,-59.78,77.83,93,78,3.33,1580069235
414,rocha,UY,3440777,-34.48,-54.33,77.41,72,67,7.52,1580069066
415,andra,RU,1511646,62.51,65.89,-3.05,97,100,4.14,1580069237
416,buin,CL,3897774,-33.73,-70.75,91.4,18,0,11.41,1580069237
417,axim,GH,2303611,4.87,-2.24,78.35,73,49,4.0,1580069238
418,derzhavinsk,KZ,1524606,51.1,66.32,27.63,91,100,25.08,1580069238
419,muzaffarpur,IN,1262330,26.12,85.4,50.0,100,40,6.17,1580069239
420,eseka,CM,2231881,3.65,10.77,69.8,41,23,2.84,1580069240
421,iberia,US,4328254,29.95,-91.75,60.01,100,90,5.82,1580069240
422,beya,RU,1510131,53.05,90.91,11.53,82,37,4.27,1580069241
423,nizwa,OM,286987,22.93,57.53,50.9,43,0,8.81,1580069242
424,yoichi,JP,2129218,43.2,140.77,28.0,42,100,3.0,1580069044
425,kaifeng,CN,1804879,34.79,114.35,33.8,69,90,6.71,1580069243
426,jieshi,CN,1805857,22.81,115.83,52.0,73,0,3.0,1580069243
427,yarmouth,US,4956335,41.71,-70.23,48.2,65,1,16.11,1580069244
428,chadiza,ZM,921028,-14.07,32.44,66.09,93,0,2.57,1580069244
429,ust-nera,RU,2120048,64.57,143.2,-36.78,100,100,2.95,1580069245
430,pangnirtung,CA,6096551,66.15,-65.71,-27.4,60,5,2.57,1580069246
431,husavik,IS,2629833,66.04,-17.34,24.8,92,100,20.8,1580069246
432,ilhabela,BR,3461425,-23.78,-45.36,78.13,72,0,10.89,1580069060
433,sindor,RU,492860,62.86,51.89,-4.2,99,100,1.36,1580069247
434,codrington,AU,2171099,-38.27,141.97,58.33,80,100,8.43,1580069248
435,tukrah,LY,88834,32.53,20.58,58.24,42,100,8.68,1580069249
436,maceio,BR,3395981,-9.67,-35.74,87.8,66,20,17.22,1580069250
437,inhambane,MZ,1045114,-23.86,35.38,82.4,78,20,11.41,1580069250
438,kysyl-syr,RU,2021017,63.9,122.76,-25.94,94,100,11.41,1580069251
439,calama,CL,3897347,-22.47,-68.93,75.2,41,40,23.04,1580069251
440,turukhansk,RU,1488903,65.82,87.98,0.37,96,100,6.15,1580069252
441,dhidhdhoo,MV,1337612,6.88,73.1,80.82,72,100,6.89,1580069252
442,vaitape,PF,4033077,-16.52,-151.75,83.07,74,100,11.05,1580069253
443,moron,AR,3430545,-34.65,-58.62,91.99,33,0,8.05,1580069139
444,lianran,CN,1803886,24.92,102.48,35.6,89,0,8.95,1580069255
445,loyga,RU,533916,61.08,44.61,11.26,96,100,3.42,1580069256
446,vangaindrano,MG,1054329,-23.35,47.6,68.25,85,32,1.95,1580069256
447,wukari,NG,2318921,7.85,9.78,74.93,11,0,5.28,1580069257
448,ndele,CF,237379,8.41,20.65,71.24,18,25,6.44,1580069257
449,rawa mazowiecka,PL,760584,51.76,20.25,32.0,92,75,2.24,1580069258
450,juneau,US,5554072,58.3,-134.42,39.2,86,90,23.04,1580069011
451,quatre cocos,MU,1106643,-20.21,57.76,77.0,83,75,13.87,1580069260
452,gat,IL,293842,31.61,34.76,51.01,87,0,3.36,1580069260
453,shillong,IN,1256523,25.57,91.88,59.0,82,40,1.72,1580069261
454,aquiraz,BR,3407407,-3.9,-38.39,86.0,78,40,6.93,1580069261
455,ampanihy,MG,1078553,-24.7,44.75,78.53,56,8,9.73,1580069262
456,bintulu,MY,1737486,3.17,113.03,78.8,94,75,2.24,1580069263
457,chapais,CA,5919850,49.78,-74.85,28.4,86,90,6.93,1580069264
458,wick,GB,2633982,58.43,-3.08,39.2,74,100,4.7,1580069264
459,grand gaube,MU,934479,-20.01,57.66,77.0,83,75,13.87,1580069265
460,hudson bay,CA,5978133,52.85,-102.38,21.97,91,100,2.66,1580069265
461,karpathos,GR,260895,35.51,27.21,60.8,72,40,13.87,1580069266
462,krasnoselkup,RU,1502073,65.7,82.47,-0.24,95,100,9.35,1580069266
463,kushiro,JP,2129376,42.98,144.37,17.31,80,0,5.53,1580069267
464,pskov,RU,504341,57.81,28.35,41.0,86,100,8.95,1580069268
465,solnechnyy,RU,2016307,50.72,136.63,-5.04,82,0,2.24,1580069268
466,sivas,TR,300617,39.79,37.0,15.8,66,8,5.82,1580069269
467,providencia,MX,3991622,28.72,-111.58,78.01,41,5,5.95,1580069270
468,barpathar,IN,1276869,26.3,93.87,55.33,90,91,2.48,1580069271
469,stettler,CA,6156307,52.32,-112.72,24.01,80,33,8.99,1580069272
470,mosquera,CO,3674292,4.71,-74.23,68.0,56,40,13.87,1580069272
471,pedernales,DO,3495137,18.04,-71.74,82.4,65,75,9.17,1580069273
472,westport,US,4845585,41.14,-73.36,48.0,52,75,13.87,1580069223
473,gornopravdinsk,RU,1506268,60.05,69.9,15.87,94,100,7.83,1580069274
474,ibra,OM,287832,22.69,58.53,58.23,34,0,5.17,1580069274
475,rafaela,AR,3839479,-31.25,-61.49,97.0,30,100,1.01,1580069275
476,zaplavnoye,RU,464829,48.7,45.02,21.2,85,18,8.95,1580069276
477,sao miguel do araguaia,BR,3448455,-13.28,-50.16,79.97,91,84,4.68,1580069224
478,pochutla,MX,3517970,15.74,-96.47,84.2,66,20,13.87,1580069277
479,kaputa,ZM,176758,-8.47,29.66,65.75,94,100,1.72,1580069278
480,lieksa,FI,648090,63.32,30.02,9.82,89,0,5.32,1580069278
481,borogontsy,RU,2026160,62.67,131.17,-29.85,90,100,10.36,1580069280
482,santa maria,BR,3450083,-29.68,-53.81,91.4,49,74,8.05,1580069278
483,yairipok,IN,1252810,24.67,94.07,42.6,96,18,1.1,1580069281
484,yenagoa,NG,2318123,4.92,6.26,77.27,69,88,4.7,1580069282
485,kodinsk,RU,1503037,58.69,99.18,11.26,94,100,7.16,1580069282
486,dauriya,RU,2025099,49.93,116.87,-6.0,98,0,2.77,1580069283
487,taltal,CL,3870243,-25.4,-70.48,72.1,69,0,6.22,1580069284
488,katangli,RU,2122783,51.71,143.23,-8.66,87,0,10.38,1580069286
489,mandalgovi,MN,2030065,45.76,106.27,11.61,63,0,8.95,1580069286
490,porto murtinho,BR,3452712,-21.7,-57.88,99.79,19,100,6.2,1580069287
491,grindavik,IS,3416888,63.84,-22.43,35.6,93,75,26.4,1580069288
492,skagen,DK,2613939,57.72,10.58,43.0,90,100,11.99,1580069289
493,chaumont,FR,3025892,48.12,5.13,48.2,76,75,5.82,1580069290
494,erenhot,CN,2037485,43.65,111.98,17.35,85,31,9.1,1580069290
495,gilgit,PK,1178338,35.92,74.31,5.4,74,50,5.73,1580069291
496,rockhampton,AU,2151437,-23.38,150.5,77.0,83,40,8.05,1580069291
497,le port,RE,935616,-20.94,55.29,77.0,73,40,11.41,1580069292
498,sovetskiy,RU,1491230,61.36,63.58,-0.22,96,100,5.48,1580069292
499,bloomington,US,5018739,44.84,-93.3,30.2,79,75,1.5,1580069293
500,rapid valley,US,5768244,44.06,-103.15,50.0,41,1,24.16,1580069294
501,rupert,US,5606000,42.62,-113.68,51.8,57,90,19.46,1580069294
502,ketchikan,US,5554428,55.34,-131.65,46.4,75,90,11.41,1580069295
503,folldal,NO,3156868,62.13,10.0,19.38,98,100,6.02,1580069295
504,dalbandin,PK,1180729,28.89,64.41,51.03,64,41,5.95,1580069296
505,carman,CA,5917275,49.5,-98.0,21.0,100,90,13.87,1580069081
506,marathon,US,5261790,44.9,-89.77,30.2,92,90,8.05,1580069137
507,iranshahr,IR,1160939,27.2,60.68,55.4,66,72,6.93,1580069298
508,havelock,US,4470244,34.88,-76.9,55.99,48,1,14.99,1580069146
509,praya,CV,3374333,14.92,-23.51,77.0,61,0,19.46,1580069028
510,levelland,US,5525042,33.59,-102.38,64.99,29,75,5.82,1580069299
511,tabou,CI,2281120,4.42,-7.35,78.75,90,38,2.3,1580069300
512,uruzgan,AF,1131461,32.83,66.0,19.26,68,100,8.41,1580069300
513,darnah,LY,87205,32.77,22.64,61.18,55,100,15.39,1580069301
514,itarema,BR,3393692,-2.92,-39.92,80.89,81,100,5.93,1580069302
515,abha,SA,110690,18.22,42.51,51.8,34,0,6.93,1580069056
516,sisimiut,GL,3419842,66.94,-53.67,3.11,96,100,5.68,1580069303
517,awbari,LY,2219235,26.59,12.78,62.28,14,60,9.75,1580069304
518,hervey bay,AU,2146219,-25.3,152.85,75.99,88,75,2.24,1580069304
519,kiunga,PG,2093846,-6.12,141.29,72.23,98,100,0.85,1580069305
520,gibara,CU,3558315,21.11,-76.13,78.8,65,75,4.7,1580069306
521,sabang,ID,1214026,5.89,95.32,81.95,71,100,9.64,1580069306
522,fort-shevchenko,KZ,609906,44.51,50.26,32.18,80,29,17.38,1580069307
523,tottori,JP,1849892,35.5,134.23,43.11,83,100,17.2,1580069308
524,balabac,PH,1728675,7.99,117.06,79.61,81,40,4.63,1580069308
525,primorka,RU,505256,47.28,39.06,32.59,83,42,6.24,1580069309
526,roebourne,AU,2062276,-20.78,117.13,86.94,41,0,4.94,1580069309
527,paysandu,UY,3441243,-32.32,-58.08,91.0,34,100,4.0,1580069144
528,alyangula,AU,2079582,-13.85,136.42,84.2,83,40,9.17,1580069311
529,salinopolis,BR,3389822,-0.61,-47.36,82.69,79,100,13.96,1580069311
530,thunder bay,CA,6166142,48.4,-89.32,32.0,80,90,9.17,1580069312
531,yuanping,CN,1786060,38.72,112.76,21.65,80,100,1.43,1580069313
532,lagos,NG,2332453,6.58,3.75,84.2,45,12,2.24,1580069019
533,gualeguaychu,AR,3433658,-33.01,-58.52,90.0,43,100,11.01,1580069314
534,atar,MR,2381334,20.52,-13.05,71.35,22,80,10.36,1580069314
535,praia,CV,3374333,14.92,-23.51,77.0,61,0,19.46,1580069315
536,sao joao da barra,BR,3448903,-21.64,-41.05,82.4,61,75,9.17,1580069316
537,tuxpan,MX,3980844,19.55,-103.4,75.2,57,40,5.08,1580069317
538,garissa,KE,197745,-0.45,39.64,80.71,77,100,9.62,1580069317
539,montepuez,MZ,1037125,-13.13,39.0,70.65,97,87,3.2,1580069318
540,nelson,NZ,2186280,-41.28,173.28,77.0,75,81,1.01,1580069318
541,medvezhyegorsk,RU,527888,62.92,34.47,11.25,90,56,9.44,1580069319
542,tiznit,MA,2527087,29.58,-9.5,49.62,76,0,3.78,1580069320
543,mirai,BR,3457119,-21.2,-42.61,72.39,93,93,4.54,1580069320
544,vostok,RU,2013279,46.49,135.88,-4.5,96,26,4.81,1580069321
545,mglin,RU,527217,53.06,32.85,32.86,86,87,13.44,1580069321
546,santiago del estero,AR,3835869,-27.8,-64.26,101.68,16,0,9.71,1580069322
547,ilo,PE,3938415,-17.64,-71.34,74.61,82,2,6.6,1580069322
548,evensk,RU,2125693,61.95,159.23,13.01,80,100,11.27,1580069323
549,vila franca do campo,PT,3372472,37.72,-25.43,62.6,88,20,11.41,1580069324
550,klaksvik,FO,2618795,62.23,-6.59,35.6,80,30,20.8,1580069325
551,tigzirt,DZ,2476660,36.89,4.12,57.24,79,0,15.37,1580069325
552,chenzhou,CN,1815059,25.8,113.03,37.69,86,100,5.5,1580069326
553,conceicao do araguaia,BR,3401845,-8.26,-49.26,83.25,75,86,3.44,1580069326
554,walvis bay,NA,3359638,-22.96,14.51,71.6,64,0,12.75,1580069327
555,nhulunbuy,AU,2064735,-12.23,136.77,82.4,88,40,11.41,1580069328
556,martapura,ID,1636022,-3.42,114.85,77.0,100,20,4.7,1580069328
557,tessalit,ML,2449893,20.2,1.01,72.18,11,91,4.59,1580069329
558,korla,CN,1529376,41.76,86.15,14.54,50,39,2.15,1580069329
559,nueve de julio,AR,3842881,-35.44,-60.88,96.39,17,50,13.02,1580069330
560,vao,NC,2137773,-22.67,167.48,77.68,83,99,12.97,1580069165
561,mountain home,US,5601615,43.13,-115.69,44.6,87,90,5.82,1580069331
562,chingirlau,KZ,610091,51.09,54.08,22.26,90,86,14.45,1580069332
563,swindon,GB,2636389,51.56,-1.78,46.99,100,75,10.29,1580069129
564,saint-pierre,RE,935214,-21.34,55.48,77.0,73,75,17.22,1580069333
565,kabinda,CD,215527,-6.13,24.48,69.89,95,100,3.33,1580069333
566,kenai,US,5866063,60.55,-151.26,-5.01,82,1,4.7,1580069334
567,faya,SA,110690,18.39,42.45,51.8,34,0,6.93,1580069335
568,guerrero negro,MX,4021858,27.98,-114.06,69.04,57,0,10.45,1580069336
569,athens,GR,264371,37.98,23.72,55.99,93,20,5.79,1580069317
570,jacksonville,US,4160021,30.33,-81.66,68.0,27,1,9.17,1580069287
571,yima,CN,1786676,34.74,111.88,29.43,77,12,1.77,1580069337
572,kutum,SD,371745,14.2,24.67,49.75,21,0,6.85,1580069338
573,altay,CN,1529651,47.87,88.12,12.97,94,100,2.68,1580069338
574,yerbogachen,RU,2012956,61.28,108.01,7.18,88,88,14.32,1580069339
575,dod ballapur,IN,1272473,13.29,77.54,62.6,88,100,5.99,1580069340
576,barsovo,RU,1510842,61.17,73.17,-5.8,83,20,8.95,1580069340
577,verkhnevilyuysk,RU,2013639,63.45,120.32,-14.13,97,100,6.13,1580069341
578,hermitage,US,5193309,41.23,-80.45,35.01,86,90,9.17,1580069341
579,morondava,MG,1058381,-20.28,44.28,76.48,90,67,3.0,1580069342
580,skalat,UA,693700,49.43,25.98,36.0,68,97,1.99,1580069342
581,sorland,NO,3137469,67.67,12.69,29.05,80,100,29.82,1580069343
582,pacifica,US,5380420,37.61,-122.49,62.01,87,90,8.05,1580069344
583,zheleznodorozhnyy,RU,463355,55.75,38.0,34.0,86,75,13.42,1580069046
584,mitzic,GA,2398283,0.78,11.55,72.28,47,0,3.56,1580069345
585,shetpe,KZ,608324,44.17,52.12,31.17,88,64,13.47,1580069345
586,baillif,GP,3579761,16.02,-61.75,82.4,65,20,10.29,1580069346
587,dubbo,AU,2168305,-32.25,148.62,71.6,88,0,6.93,1580069346
588,baruun-urt,MN,2032614,46.68,113.28,10.44,82,0,11.9,1580069347
589,parvatipuram,IN,1260222,18.78,83.43,62.6,55,0,2.08,1580069348
590,bundaberg,AU,2173323,-24.85,152.35,75.99,88,75,2.24,1580069348
591,big spring,US,5517061,32.25,-101.48,68.0,29,1,9.64,1580069349
592,babstovo,RU,2027277,48.12,132.48,0.28,88,0,4.54,1580069349
593,road town,VG,3577430,18.42,-64.62,82.4,94,75,3.36,1580069154
594,porto santo,PT,8010683,33.07,-16.34,62.6,72,20,1.12,1580069350
595,touros,BR,3386213,-5.2,-35.46,86.0,66,40,14.99,1580069351
596,dakar,SN,2253354,14.69,-17.44,87.8,19,100,21.92,1580069352
597,essex,US,5097707,40.78,-74.22,46.99,52,90,9.82,1580069352
598,biltine,TD,244878,14.53,20.92,63.1,15,0,10.76,1580069353
599,palmer,US,4946620,42.16,-72.33,46.0,86,90,8.05,1580069354
600,puerto madero,MX,3520989,14.72,-92.42,89.6,55,20,11.41,1580069354
601,tezu,IN,1254709,27.92,96.17,48.94,47,0,3.91,1580069355
602,sola,VU,2134814,-13.88,167.55,82.9,76,72,13.2,1580069355
603,gari,RU,1506676,59.43,62.35,-3.33,99,93,6.24,1580069356
604,collie,AU,2074113,-33.37,116.15,68.0,42,0,8.25,1580069357
605,byron bay,AU,2172880,-28.65,153.62,75.99,88,75,5.82,1580069357
606,broome,US,5110365,42.25,-75.83,39.0,100,90,3.36,1580069358
607,giyani,ZA,1001860,-23.3,30.72,80.22,45,0,3.09,1580069358
608,vagur,FO,2610806,61.47,-6.81,41.45,57,8,29.26,1580069359
609,port lincoln,AU,2063036,-34.73,135.87,62.55,78,84,5.66,1580069317
610,genhe,CN,2037252,50.78,121.52,-6.65,100,80,2.1,1580069361
611,cotui,DO,3509207,19.05,-70.15,84.2,83,40,9.17,1580069361
612,ocos,GT,3592086,14.51,-92.19,91.4,46,20,6.93,1580069362
613,southbridge,US,4951594,42.08,-72.03,46.99,86,90,8.05,1580069363
614,nioro,GM,2412408,13.35,-15.75,84.72,9,100,8.39,1580069364
615,neryungri,RU,2019309,56.67,124.65,2.79,89,100,2.04,1580069364
616,paamiut,GL,3421193,61.99,-49.67,17.06,67,100,20.22,1580069365
617,mehran,IR,124291,33.12,46.16,33.8,86,0,4.7,1580069365
618,santo antonio do taua,BR,3389062,-1.15,-48.13,77.0,94,75,6.93,1580069366
619,mayskiy,RU,528242,47.69,40.1,28.4,79,0,6.71,1580069367
620,severo-yeniseyskiy,RU,1492566,60.37,93.04,7.16,92,100,6.93,1580069367
621,gubkinskiy,RU,1539209,64.43,76.5,-4.95,99,95,9.55,1580069368
622,mtwara,TZ,877747,-10.27,40.18,78.8,88,40,2.04,1580069368
623,miraflores,MX,3761194,19.22,-98.81,78.8,40,20,10.29,1580069369
624,araouane,ML,2460954,18.9,-3.53,77.34,8,100,5.77,1580069369
625,belmonte,BR,3470137,-15.86,-38.88,84.2,83,40,4.7,1580069370
626,naze,JP,1855540,28.37,129.48,71.6,100,75,10.29,1580069371
627,svarstad,NO,7626348,59.4,9.97,43.0,100,90,19.46,1580069371
628,tucuman,AR,3836873,-26.82,-65.22,91.4,55,75,5.17,1580069265
629,santarem,BR,3389353,-2.44,-54.71,87.8,70,20,8.05,1580069373
630,vila,PT,7117100,42.03,-8.16,59.0,87,75,10.29,1580069373
631,indramayu,ID,1643078,-6.33,108.32,78.82,80,0,4.16,1580069357
632,sokol,RU,491281,59.46,40.12,21.9,96,93,6.06,1580069374
633,porto-vecchio,FR,2985947,41.59,9.28,50.0,93,0,2.24,1580069375
634,liepaja,LV,457955,56.54,21.04,41.0,86,100,13.87,1580069375
635,lao cai,VN,1576303,22.48,103.95,53.13,82,80,1.54,1580069376
636,zastron,ZA,937246,-30.3,27.08,58.93,74,0,19.33,1580069377
637,aku,NG,2350886,6.71,7.32,82.4,42,58,3.36,1580069377
638,winnipeg,CA,6183235,49.88,-97.15,19.0,85,90,10.29,1580069206
639,dharchula,IN,1272864,29.85,80.53,27.3,40,46,8.97,1580069379
640,mamontovo,RU,1499428,52.71,81.62,12.61,76,75,19.24,1580069379
641,lexington,US,4297983,37.99,-84.48,46.99,81,40,10.29,1580069282
642,ishigaki,JP,1861416,24.34,124.16,67.15,81,10,31.59,1580069381
643,babushkin,RU,2027276,51.71,105.86,7.09,95,87,3.11,1580069382
644,bambanglipuro,ID,1650434,-7.95,110.28,74.5,91,0,2.64,1580069382
645,rio grande,BR,3451138,-32.03,-52.1,87.8,62,40,12.75,1580069383
646,pierre,US,5767918,44.37,-100.35,39.99,64,75,20.8,1580069174
647,japura,ID,1642773,-0.32,102.35,73.83,97,100,0.54,1580069384
648,kjollefjord,NO,779261,70.95,27.35,21.2,92,90,11.41,1580069386
649,plainview,US,5131638,40.78,-73.47,46.99,52,90,12.12,1580069386
650,tateyama,JP,1850523,34.98,139.87,44.6,56,75,11.41,1580069387
651,sao joao do piaui,BR,3388618,-8.36,-42.25,75.2,93,100,4.12,1580069387
652,sibut,CF,2383119,5.72,19.07,73.42,24,83,3.65,1580069388
653,puerto madryn,AR,3840092,-42.77,-65.04,67.59,28,0,19.24,1580069388
654,biak,ID,1637001,-0.91,122.88,81.37,80,41,3.78,1580069389
655,margate,GB,2643044,51.38,1.39,50.0,93,75,16.11,1580069390
656,kolosovka,RU,1502879,56.47,73.61,20.79,93,100,19.15,1580069390
657,zhigansk,RU,2012530,66.77,123.37,-30.53,63,0,2.95,1580069391
658,languyan,PH,1707511,5.26,120.08,82.36,75,0,6.96,1580069392
659,kapit,MY,1737185,2.02,112.93,72.81,99,66,1.7,1580069392
660,mastic beach,US,5126209,40.77,-72.85,48.0,56,40,12.75,1580069162
661,raudeberg,NO,3146487,61.99,5.14,48.2,81,75,25.28,1580069393
662,bangassou,CF,240498,4.74,22.82,72.91,33,0,2.95,1580069394
663,porkhov,RU,506278,57.77,29.56,41.0,86,100,8.95,1580069394
664,ilebo,CD,215976,-4.32,20.58,79.79,52,100,1.83,1580069395
665,pitimbu,BR,3391889,-7.47,-34.81,87.8,62,75,10.29,1580069396
666,mumford,GH,2297810,5.26,-0.76,76.86,75,3,3.65,1580069396
667,phalaborwa,ZA,965528,-23.94,31.14,84.2,48,0,3.36,1580069397
668,tibati,CM,2221530,6.47,12.63,68.92,17,0,6.8,1580069397
669,grand island,US,5069297,40.92,-98.34,50.0,70,1,4.7,1580069398
670,morococha,PE,3934586,-11.6,-76.14,50.43,54,100,11.45,1580069399
671,puerto penasco,MX,3991347,31.32,-113.53,62.01,88,34,3.0,1580069399
672,caravelas,BR,3466980,-17.71,-39.25,79.59,83,87,17.31,1580069400
