,City Name,City Country,City ID,City Lat,City Long,Temps (F),Humidity %,Cloudiness %,Windspeed (mph),City Datetime
0,iranshahr,IR,1160939,27.2,60.68,55.4,66,56,6.93,12600
1,bengkulu,ID,1649150,-3.8,102.27,75.56,88,100,3.36,25200
2,ushuaia,AR,3833367,-54.8,-68.3,50.0,76,75,27.51,-10800
3,kidal,ML,2455290,18.44,1.41,79.03,7,94,8.25,0
4,barrow,US,5880054,71.29,-156.79,-23.8,74,75,10.29,-32400
5,qaanaaq,GL,3831208,77.48,-69.36,-10.52,57,0,5.88,-14400
6,hermanus,ZA,3366880,-34.42,19.23,62.01,84,7,13.85,7200
7,mataura,NZ,6201424,-46.19,168.86,57.0,90,70,1.01,46800
8,vazante,BR,3445418,-17.99,-46.91,80.02,77,88,7.09,-10800
9,cape town,ZA,3369157,-33.93,18.42,64.99,63,20,8.05,7200
10,hithadhoo,MV,1282256,-0.6,73.08,80.69,82,99,10.02,18000
11,bredasdorp,ZA,1015776,-34.53,20.04,60.8,63,0,8.05,7200
12,zhoucheng,CN,1920772,35.91,116.31,34.75,57,100,8.19,28800
13,georgetown,MY,1735106,5.41,100.34,80.6,83,20,2.17,28800
14,quatre cocos,MU,1106643,-20.21,57.76,77.0,83,75,13.87,14400
15,cayenne,GF,3382160,4.93,-52.33,75.2,100,75,2.24,-10800
16,punta arenas,CL,3874787,-53.15,-70.92,57.2,50,20,34.45,-10800
17,albany,US,5106841,42.6,-73.97,42.01,69,75,6.93,-18000
18,tuktoyaktuk,CA,6170031,69.45,-133.04,-25.6,74,40,6.93,-25200
19,te anau,NZ,2181625,-45.42,167.72,54.0,86,60,6.64,46800
20,leningradskiy,RU,2123814,69.38,178.42,-9.18,94,100,11.63,43200
21,nikolskoye,RU,546105,59.7,30.79,33.8,80,75,6.71,10800
22,oranjemund,NA,3354071,-28.55,16.43,63.86,61,7,22.06,7200
23,bluff,NZ,2206939,-46.6,168.33,57.0,90,44,1.01,46800
24,port alfred,ZA,964432,-33.59,26.89,64.0,77,93,8.01,7200
25,tiksi,RU,2015306,71.69,128.87,-31.56,68,0,3.11,32400
26,vaini,TO,4032243,-21.2,-175.2,77.0,94,75,2.24,46800
27,kucevo,RS,788937,44.48,21.67,39.99,84,71,4.88,3600
28,gararu,BR,3399051,-9.97,-37.08,101.25,26,34,5.5,-10800
29,dikson,RU,1507390,73.51,80.55,-3.95,96,99,2.57,25200
30,ploemeur,FR,2986732,47.73,-3.43,52.0,93,100,12.75,3600
31,houma,US,4328010,29.6,-90.72,54.0,93,75,11.41,-21600
32,jamestown,US,5122534,42.1,-79.24,34.0,92,90,10.29,-18000
33,hobart,AU,2163355,-42.88,147.33,59.0,51,100,10.29,39600
34,pevek,RU,2122090,69.7,170.31,-5.98,93,100,1.05,43200
35,hazorasp,UZ,1513957,41.32,61.07,35.6,64,16,13.87,18000
36,saskylakh,RU,2017155,71.92,114.08,-17.21,96,98,9.6,32400
37,upernavik,GL,3418910,72.79,-56.15,-17.0,96,100,3.56,-10800
38,carnarvon,AU,2074865,-24.87,113.63,77.0,88,0,12.75,28800
39,sao gabriel da cachoeira,BR,3662342,-0.13,-67.09,91.4,66,40,4.7,-14400
40,busselton,AU,2075265,-33.65,115.33,71.01,38,0,9.4,28800
41,yellowknife,CA,6185377,62.46,-114.35,6.8,84,90,16.11,-25200
42,mahebourg,MU,934322,-20.41,57.7,77.0,83,75,13.87,14400
43,norwich,GB,2641181,52.63,1.3,48.2,87,75,16.11,0
44,port elizabeth,ZA,964420,-33.92,25.57,62.6,72,20,25.28,7200
45,college,US,5859699,64.86,-147.8,-14.01,98,90,3.36,-32400
46,buchanan,LR,2278158,5.88,-10.05,84.2,74,40,9.55,0
47,sananduva,BR,3450496,-27.95,-51.81,84.2,42,20,9.17,-10800
48,khatanga,RU,2022572,71.97,102.5,-19.89,98,95,3.06,25200
49,wilmington island,US,4231354,32.0,-80.97,62.6,29,1,11.41,-18000
50,saint-philippe,RE,935215,-21.36,55.77,78.8,74,75,14.99,14400
51,atuona,PF,4020109,-9.8,-139.03,80.29,75,0,15.23,-34200
52,bethel,US,5282297,41.37,-73.41,46.99,65,75,16.11,-18000
53,orlovskiy,RU,514796,46.87,42.06,31.87,80,46,6.4,10800
54,longyearbyen,SJ,2729907,78.22,15.64,1.4,84,0,1.12,3600
55,dondo,MZ,1024696,-19.61,34.74,80.6,83,20,6.93,7200
56,chokurdakh,RU,2126123,70.63,147.92,-20.47,96,100,5.35,39600
57,cabo san lucas,MX,3985710,22.89,-109.91,75.0,68,40,5.82,-25200
58,natal,BR,3394023,-5.79,-35.21,86.0,70,40,12.75,-10800
59,praia,CV,3374333,14.92,-23.51,77.0,61,40,19.46,-3600
60,oriximina,BR,3393471,-1.77,-55.87,90.45,54,100,4.88,-10800
61,port lincoln,AU,2063036,-34.73,135.87,62.38,84,3,9.33,37800
62,san pedro,PH,1688781,14.35,121.02,79.0,83,20,6.93,28800
63,rikitea,PF,4030556,-23.12,-134.97,79.29,79,68,14.5,-32400
64,arinos,BR,3471522,-15.92,-46.11,79.52,85,81,6.15,-10800
65,vostok,RU,2013279,46.49,135.88,-5.3,97,84,5.35,36000
66,grindavik,IS,3416888,63.84,-22.43,35.6,80,75,12.75,0
67,seymchan,RU,2121373,62.88,152.43,-27.35,95,100,3.71,39600
68,norman wells,CA,6089245,65.28,-126.83,-18.4,75,75,4.7,-25200
69,new norfolk,AU,2155415,-42.78,147.06,59.0,51,90,11.41,39600
70,pisco,PE,3932145,-13.7,-76.22,73.99,30,38,26.4,-18000
71,lazaro cardenas,MX,4026082,17.96,-102.2,84.0,50,0,5.1,-21600
72,thompson,CA,6165406,55.74,-97.86,5.0,84,40,3.47,-21600
73,lagoa,PT,3372964,39.05,-27.98,60.76,80,100,14.34,-3600
74,port hardy,CA,6111862,50.7,-127.42,46.4,87,75,8.05,-28800
75,cairns,AU,2172797,-16.92,145.77,79.0,88,75,3.36,36000
76,castro,BR,3466704,-24.79,-50.01,83.8,33,2,4.32,-10800
77,kodiak,US,5866583,57.79,-152.41,15.8,61,90,6.93,-32400
78,davila,PH,1715335,18.47,120.58,75.2,83,20,5.82,28800
79,fortuna,US,5563839,40.6,-124.16,55.99,76,90,10.29,-28800
80,arraial do cabo,BR,3471451,-22.97,-42.03,84.2,65,0,11.41,-10800
81,bambous virieux,MU,1106677,-20.34,57.76,77.0,83,75,13.87,14400
82,caravelas,BR,3466980,-17.71,-39.25,78.91,81,100,14.0,-10800
83,kushiro,JP,2129376,42.98,144.37,17.76,79,0,6.71,32400
84,capinota,BO,3922125,-17.72,-66.23,82.4,24,20,4.7,-14400
85,taltal,CL,3870243,-25.4,-70.48,73.62,67,0,8.84,-10800
86,kudahuvadhoo,MV,1337607,2.67,72.89,81.46,74,99,11.01,18000
87,pangnirtung,CA,6096551,66.15,-65.71,-27.4,60,5,2.21,-18000
88,vardo,NO,777019,70.37,31.11,17.6,92,90,38.03,3600
89,butaritari,KI,2110227,3.07,172.79,84.9,73,97,13.18,43200
90,navrongo,GH,2297505,10.9,-1.09,86.22,6,28,7.58,0
91,sambava,MG,1056899,-14.27,50.17,72.57,97,92,0.98,10800
92,sao joao da barra,BR,3448903,-21.64,-41.05,82.4,61,75,9.17,-10800
93,ribeira grande,PT,3372707,38.52,-28.7,62.6,88,40,11.41,-3600
94,claremore,US,4533580,36.31,-95.62,57.2,72,1,4.7,-21600
95,road town,VG,3577430,18.42,-64.62,80.6,94,75,9.17,-14400
96,sinnamary,GF,3380290,5.38,-52.95,80.49,80,28,16.75,-10800
97,lompoc,US,5367788,34.64,-120.46,63.0,93,90,14.99,-28800
98,nome,US,5870133,64.5,-165.41,-7.6,63,1,9.17,-32400
99,yumen,CN,1528998,40.28,97.2,17.29,58,0,7.83,28800
100,severo-kurilsk,RU,2121385,50.68,156.12,18.34,92,100,16.17,39600
101,palmer,US,4946620,42.16,-72.33,46.99,86,90,8.05,-18000
102,hasaki,JP,2112802,35.73,140.83,37.4,62,75,6.93,32400
103,vao,NC,2137773,-22.67,167.48,77.36,83,100,14.16,39600
104,kavali,IN,1267394,14.92,79.98,73.6,77,0,7.83,19800
105,panaba,MX,3521972,21.28,-88.27,82.18,55,15,7.07,-21600
106,casa grande,US,5288636,32.88,-111.76,68.0,52,1,1.28,-25200
107,ismailia,EG,361055,30.6,32.27,52.92,56,0,10.8,7200
108,avarua,CK,4035715,-21.21,-159.78,80.6,94,100,11.41,-36000
109,aykhal,RU,2027296,66.0,111.5,-22.0,74,90,4.47,32400
110,kavaratti,IN,1267390,10.57,72.64,81.09,65,36,4.32,19800
111,tuatapere,NZ,2180815,-46.13,167.68,57.0,90,65,1.01,46800
112,baoro,CF,2389804,5.67,15.97,75.25,20,0,4.29,3600
113,ancud,CL,3899695,-41.87,-73.82,66.2,55,20,6.93,-10800
114,ucluelet,CA,6171633,48.93,-125.55,50.0,87,90,4.7,-28800
115,hovd,MN,1516048,48.01,91.64,5.54,76,99,0.98,25200
116,kropotkin,RU,540761,45.44,40.58,36.03,87,91,4.56,10800
117,kankaanpaa,FI,654363,61.8,22.42,32.0,86,90,9.17,7200
118,sakaiminato,JP,1853174,35.55,133.23,50.0,61,75,28.86,32400
119,batangafo,CF,2389691,7.3,18.28,79.48,15,1,4.54,3600
120,hilo,US,5855927,19.73,-155.09,75.2,60,1,3.36,-36000
121,deputatskiy,RU,2028164,69.3,139.9,-33.07,91,97,2.51,36000
122,kapaa,US,5848280,22.08,-159.32,77.0,83,40,9.17,-36000
123,bougouni,ML,2459775,11.42,-7.48,92.68,6,18,5.06,0
124,amazar,RU,2027806,53.86,120.88,-4.9,97,98,0.38,32400
125,boa vista,BR,3664980,2.82,-60.67,93.2,44,75,8.05,-14400
126,codrington,AU,2171099,-38.27,141.97,59.47,76,95,6.69,39600
127,znamenskoye,RU,1485020,57.13,73.83,17.65,92,100,12.84,21600
128,salalah,OM,286621,17.02,54.09,73.4,20,0,24.16,14400
129,cabedelo,BR,3404558,-6.98,-34.83,87.8,62,75,10.29,-10800
130,anadyr,RU,2127202,64.75,177.48,12.2,78,100,13.42,43200
131,aldan,RU,2027968,58.6,125.39,8.96,91,100,9.48,32400
132,palu,ID,1633034,-0.89,119.87,68.5,98,24,2.26,28800
133,linxia,CN,1803331,35.6,103.21,14.83,68,0,2.35,28800
134,vila franca do campo,PT,3372472,37.72,-25.43,62.6,88,20,10.29,-3600
135,aris,GR,264650,37.1,22.0,57.99,81,100,1.12,7200
136,norderstedt,DE,2862026,53.7,10.02,37.99,93,75,9.17,3600
137,comodoro rivadavia,AR,3860443,-45.87,-67.5,69.8,28,0,16.11,-10800
138,pahrump,US,5509851,36.21,-115.98,64.99,37,1,6.35,-28800
139,ayan,RU,2027316,56.45,138.17,-13.95,62,0,12.03,36000
140,east london,ZA,1006984,-33.02,27.91,68.0,45,97,21.92,7200
141,empalme,MX,4006806,27.97,-110.82,75.99,64,5,8.05,-25200
142,puerto el triunfo,SV,3584003,13.28,-88.55,87.8,66,20,6.93,-21600
143,quepos,CR,3622193,9.42,-84.17,86.0,47,40,11.41,-21600
144,sao filipe,CV,3374210,14.9,-24.5,76.8,58,0,14.5,-3600
145,chuy,UY,3443061,-33.7,-53.46,85.89,51,33,6.49,-10800
146,nanchong,CN,1800146,30.8,106.08,42.1,81,66,4.5,28800
147,alofi,NU,4036284,-19.06,-169.92,80.6,94,15,4.7,-39600
148,marrakesh,MA,2542997,31.63,-8.01,57.2,54,20,6.93,3600
149,praya,CV,3374333,14.92,-23.51,77.0,61,40,19.46,-3600
150,kaitangata,NZ,2208248,-46.28,169.85,56.84,86,90,9.73,46800
151,lebu,CL,3883457,-37.62,-73.65,73.78,47,14,11.79,-10800
152,guilin,CN,1809498,25.28,110.29,42.8,75,90,13.42,28800
153,koutsouras,GR,261814,35.03,25.95,59.0,68,58,4.0,7200
154,shenjiamen,CN,1795632,29.96,122.3,49.69,90,100,36.46,28800
155,black diamond,US,5787423,47.31,-122.0,52.0,71,75,16.11,-28800
156,puerto ayora,EC,3652764,-0.74,-90.35,80.6,78,90,2.24,-21600
157,paraiso,CR,3622547,9.84,-83.87,86.0,47,40,11.41,-21600
158,rio gallegos,AR,3838859,-51.62,-69.22,62.6,59,40,31.09,-10800
159,ketchikan,US,5554428,55.34,-131.65,44.6,75,90,3.71,-32400
160,kotelnikovo,RU,543728,47.63,43.15,30.0,87,24,6.91,14400
161,dunmanway,IE,2964496,51.72,-9.12,42.01,93,75,8.05,0
162,dicabisagan,PH,1715015,17.08,122.42,74.19,88,89,5.55,28800
163,manokwari,ID,1636308,-0.87,134.08,73.99,79,100,3.36,32400
164,saint george,US,5546220,37.1,-113.58,55.0,46,1,3.36,-25200
165,tarko-sale,RU,1490085,64.92,77.78,-2.99,84,100,9.01,18000
166,martapura,ID,1636022,-3.42,114.85,78.8,100,75,6.93,28800
167,carutapera,BR,3402648,-1.2,-46.02,83.52,77,100,14.36,-10800
168,saint anthony,US,5044290,45.02,-93.22,30.0,79,90,0.94,-21600
169,bathsheba,BB,3374083,13.22,-59.52,82.4,65,40,11.41,-14400
170,narsaq,GL,3421719,60.92,-46.05,10.4,72,100,4.7,-10800
171,omsukchan,RU,2122493,62.53,155.8,-23.51,99,100,6.8,39600
172,atikokan,CA,5888001,48.76,-91.62,26.29,90,100,4.68,-18000
173,tura,IN,1254046,25.52,90.22,61.79,60,44,1.63,19800
174,padang,ID,1633419,-0.95,100.35,68.76,97,100,2.93,25200
175,cherskiy,RU,2126199,68.75,161.3,-17.61,94,100,1.23,39600
176,sitka,US,5557293,57.05,-135.33,42.8,81,90,16.11,-32400
177,buloh kasap,MY,1734879,2.55,102.76,80.6,74,20,4.7,28800
178,uusikaupunki,FI,633221,60.8,21.41,34.0,94,65,1.12,7200
179,stephenville crossing,CA,6156245,48.5,-58.43,32.0,78,75,9.17,-12600
180,mar del plata,AR,3430863,-38.0,-57.56,77.0,53,96,12.75,-10800
181,baramati,IN,1277091,18.15,74.58,71.92,46,0,7.94,19800
182,high prairie,CA,5975034,55.43,-116.49,22.14,88,23,6.22,-25200
183,madanapalle,IN,1264621,13.55,78.5,65.19,67,30,3.76,19800
184,sioux lookout,CA,6148373,50.1,-91.92,17.6,85,90,5.82,-21600
185,vysokogornyy,RU,2013216,50.12,139.15,-13.83,100,100,3.29,36000
186,puchov,SK,3057963,49.12,18.33,32.0,86,90,2.24,3600
187,elat,IL,295277,29.56,34.95,53.6,46,0,6.93,7200
188,esperance,AU,2071860,-33.87,121.9,60.8,100,8,4.7,28800
189,trairi,BR,3386177,-3.28,-39.27,87.57,58,80,10.85,-10800
190,katsuura,JP,2112309,35.13,140.3,44.6,56,75,10.29,32400
191,juneau,US,5554072,58.3,-134.42,39.2,86,90,23.04,-32400
192,issoire,FR,3012664,45.55,3.25,42.8,75,20,3.36,3600
193,tarauaca,BR,3661980,-8.16,-70.77,88.77,54,90,5.35,-18000
194,camacari,BR,3468031,-12.7,-38.32,84.2,79,75,4.7,-10800
195,poya,NC,2138522,-21.35,165.15,77.29,78,82,6.69,39600
196,andijon,UZ,1514588,40.78,72.34,33.8,92,90,4.47,18000
197,ampanihy,MG,1078553,-24.7,44.75,79.45,46,79,9.46,10800
198,el sauzal,MX,4007503,31.9,-116.68,57.99,84,8,4.0,-28800
199,kruisfontein,ZA,986717,-34.0,24.73,58.77,71,20,19.89,7200
200,torbay,CA,6167817,47.67,-52.73,35.01,79,40,11.41,-12600
201,bilma,NE,2446796,18.69,12.92,66.88,11,0,8.86,3600
202,chara,RU,2025630,56.91,118.26,-1.19,88,95,0.56,32400
203,tabou,CI,2281120,4.42,-7.35,82.99,74,33,7.18,0
204,henties bay,NA,3356832,-22.12,14.28,64.99,87,0,5.99,7200
205,opotiki,NZ,2208332,-38.08,177.28,71.01,90,93,2.57,46800
206,tasiilaq,GL,3424607,65.61,-37.64,32.0,44,100,11.41,-10800
207,puerto colombia,CO,3671497,10.99,-74.95,87.8,55,41,17.22,-18000
208,kununurra,AU,2068110,-15.77,128.73,80.6,88,64,5.61,28800
209,ilulissat,GL,3423146,69.22,-51.1,10.4,60,100,9.17,-10800
210,kachug,RU,2023333,53.96,105.88,6.03,87,99,2.39,28800
211,alta floresta,BR,6316343,-9.88,-56.09,91.4,59,40,3.36,-14400
212,iqaluit,CA,5983720,63.75,-68.51,-27.0,60,20,11.41,-18000
213,nhulunbuy,AU,2064735,-12.23,136.77,82.4,83,40,12.75,34200
214,namatanai,PG,2090021,-3.67,152.43,83.07,76,99,11.1,36000
215,acarau,BR,3408368,-2.89,-40.12,87.33,62,77,13.2,-10800
216,ojinaga,MX,3994469,29.57,-104.42,69.8,26,1,8.05,-25200
217,puerto carreno,CO,3671519,6.19,-67.49,96.8,41,20,3.36,-18000
218,avera,US,4231997,33.19,-82.53,59.0,33,1,14.99,-18000
219,mitsamiouli,KM,921786,-11.38,43.28,80.6,78,20,6.93,10800
220,lafiagi,NG,2332504,8.87,5.42,84.27,8,8,1.9,3600
221,marshall,US,4074736,34.38,-86.33,48.99,70,90,3.36,-21600
222,homer,US,5864145,59.64,-151.55,10.4,59,75,4.7,-32400
223,tadine,NC,2138285,-21.55,167.88,74.62,89,100,9.82,39600
224,marzuq,YE,72181,14.4,46.47,64.13,55,60,4.81,10800
225,banda aceh,ID,1215502,5.56,95.32,73.18,82,77,3.8,25200
226,faya,SA,110690,18.39,42.45,53.6,34,0,8.05,10800
227,moroni,KM,921772,-11.7,43.26,80.6,78,20,6.93,10800
228,lasa,IT,3175096,46.62,10.7,35.6,80,5,1.14,3600
229,nikolayevsk-na-amure,RU,2122850,53.14,140.73,-17.28,90,0,6.87,36000
230,vila velha,BR,3445026,-20.33,-40.29,81.0,74,40,9.17,-10800
231,qaqortoq,GL,3420846,60.72,-46.03,10.4,72,100,4.7,-10800
232,yarim,YE,69559,14.3,44.38,49.75,76,46,10.25,10800
233,krasnyy chikoy,RU,2012349,50.36,108.75,1.38,94,82,1.63,32400
234,tabuk,PH,1684803,17.42,121.44,69.26,96,93,4.25,28800
235,novyy urengoy,RU,1496511,66.08,76.63,-3.1,97,87,5.26,18000
236,sorong,ID,1626542,-0.88,131.25,72.88,97,90,0.25,32400
237,hunsur,IN,1269873,12.31,76.29,67.77,41,100,4.16,19800
238,luganville,VU,2136150,-15.53,167.17,75.2,100,75,3.36,39600
239,rock sound,BS,3571592,24.9,-76.2,72.72,72,14,3.51,-18000
240,nuuk,GL,3421319,64.18,-51.72,12.2,61,75,12.75,-10800
241,kota kinabalu,MY,1733432,5.97,116.07,80.6,83,75,3.36,28800
242,inirida,CO,3671450,3.87,-67.92,94.89,45,69,1.61,-18000
243,akyab,MM,1295765,20.15,92.9,67.19,53,31,15.39,23400
244,santa cruz de la palma,ES,2511180,28.68,-17.76,64.4,68,20,5.82,0
245,clyde river,CA,5924351,70.47,-68.59,-18.4,68,75,14.99,-18000
246,riachao das neves,BR,3451478,-11.75,-44.91,74.26,87,100,0.27,-10800
247,laguna,US,5364271,38.42,-121.42,64.0,77,1,10.29,-28800
248,loa janan,ID,1637510,-0.58,117.09,73.96,97,14,1.41,28800
249,airai,TL,1651810,-8.93,125.41,67.96,92,8,1.9,32400
250,yar-sale,RU,1486321,66.83,70.83,-12.55,100,85,1.14,18000
251,komsomolskiy,UZ,1513491,40.43,71.72,33.8,74,50,6.93,18000
252,dawei,MM,1293625,14.08,98.2,75.36,67,100,6.17,23400
253,san andres,CO,3670218,12.58,-81.7,84.2,62,20,10.29,-18000
254,sisimiut,GL,3419842,66.94,-53.67,2.97,95,100,4.14,-10800
255,yamada,JP,2110560,39.47,141.95,27.48,63,0,5.77,32400
256,karratha,AU,6620339,-20.74,116.85,84.72,76,0,15.55,28800
257,maceio,BR,3395981,-9.67,-35.74,87.8,66,20,17.22,-10800
258,constitucion,CL,3893726,-35.33,-72.42,72.14,62,21,12.01,-10800
259,havelock,US,4470244,34.88,-76.9,55.99,46,1,16.11,-18000
260,sur,OM,286245,22.57,59.53,67.21,64,14,6.78,14400
261,ballina,AU,2177069,-28.87,153.57,72.0,94,40,5.77,39600
262,merauke,ID,2082539,-8.47,140.33,78.49,91,71,3.89,32400
263,ponta do sol,PT,2264557,32.67,-17.1,62.6,67,40,4.7,0
264,bhag,PK,1182872,29.04,67.82,65.16,45,29,1.61,18000
265,aras,ES,3129839,42.56,-2.36,44.6,81,39,4.12,3600
266,hun,LY,2216645,29.13,15.95,65.95,21,89,13.02,7200
267,guerrero negro,MX,4021858,27.98,-114.06,66.02,63,0,5.21,-25200
268,praia da vitoria,PT,3372760,38.73,-27.07,62.6,82,40,14.45,-3600
269,la arena,PE,3693528,-5.35,-80.71,90.32,40,90,12.35,-18000
270,huarmey,PE,3939168,-10.07,-78.15,84.18,48,70,11.54,-18000
271,skibbereen,IE,2961459,51.55,-9.27,41.0,93,75,8.05,0
272,trofors,NO,3133983,65.53,13.41,37.4,85,90,5.82,3600
273,saldanha,ZA,3361934,-33.01,17.94,62.6,59,0,10.29,7200
274,maykor,RU,528288,59.01,55.88,6.04,94,88,6.76,18000
275,catarman,PH,1717926,12.5,124.64,74.5,93,75,3.71,28800
276,puri,IN,1259184,19.8,85.85,62.6,88,40,3.0,19800
277,melfi,IT,3173615,41.0,15.65,48.2,86,75,4.7,3600
278,finschhafen,PG,2097418,-6.6,147.87,84.29,73,85,6.73,36000
279,hvolsvollur,IS,3415720,63.75,-20.22,37.4,59,20,28.86,0
280,tautira,PF,4033557,-17.73,-149.15,86.0,70,40,13.87,-36000
281,ialibu,PG,2095925,-6.28,143.99,59.47,97,100,3.0,36000
282,mazamari,PE,3935102,-11.33,-74.53,82.04,48,87,3.47,-18000
283,jiwani,PK,1175712,25.05,61.74,68.74,67,47,24.7,18000
284,mogadishu,SO,53654,2.04,45.34,81.03,83,0,22.46,10800
285,cloquet,US,5021632,46.72,-92.46,28.99,85,100,4.7,-21600
286,sorland,NO,3137469,67.67,12.69,32.0,63,20,17.22,3600
287,baoding,CN,1816971,38.85,115.49,33.58,49,100,2.04,28800
288,dharchula,IN,1272864,29.85,80.53,28.54,47,97,8.9,19800
289,segou,ML,2451478,13.43,-6.22,88.7,6,64,8.81,0
290,tilichiki,RU,2120591,60.47,166.1,28.74,87,97,23.4,43200
291,cidreira,BR,3466165,-30.18,-50.21,78.33,69,4,9.73,-10800
292,victoria,HK,1819729,22.29,114.16,54.0,71,40,12.75,28800
293,ndola,ZM,901344,-12.96,28.64,66.38,93,84,1.95,7200
294,san nicolas,PH,1688859,18.17,120.6,75.2,83,20,5.82,28800
295,zirgan,RU,462467,53.22,55.92,10.87,96,87,4.68,18000
296,kyshtovka,RU,1501000,56.55,76.63,15.33,91,100,17.29,25200
297,atar,MR,2381334,20.52,-13.05,82.33,17,99,11.48,0
298,berezovyy,RU,2026786,51.67,135.7,-5.75,72,0,4.38,36000
299,north andover,US,4832272,42.7,-71.14,50.0,52,90,12.75,-18000
300,bristol,US,4931378,41.83,-71.17,50.0,49,90,10.29,-18000
301,biak,ID,1637001,-0.91,122.88,81.52,83,53,6.11,28800
302,provideniya,RU,4031574,64.38,-173.3,-5.8,70,0,4.47,43200
303,lodwar,KE,189280,3.12,35.6,87.78,44,93,9.69,10800
304,guamuchil,MX,4005297,25.47,-108.1,77.0,63,0,4.0,-25200
305,lata,PT,2738381,40.16,-8.33,57.0,81,20,4.7,0
306,parati,BR,3455036,-23.22,-44.71,89.6,69,20,8.05,-10800
307,nosy varika,MG,1058080,-20.58,48.53,75.27,66,100,2.66,10800
308,dubbo,AU,2168305,-32.25,148.62,71.6,88,0,5.82,39600
309,port macquarie,AU,2152659,-31.43,152.92,73.0,100,49,3.36,39600
310,christchurch,NZ,2192362,-43.53,172.63,63.0,100,82,6.93,46800
311,gonbad-e qabus,IR,132938,37.25,55.17,35.6,44,0,2.24,12600
312,pokhara,NP,1282898,28.23,83.98,48.56,89,54,1.68,20700
313,upington,ZA,945945,-28.45,21.26,71.6,28,0,14.99,7200
314,necochea,AR,3430443,-38.55,-58.74,73.0,66,70,17.0,-10800
315,uige,AO,2236568,-7.61,15.06,70.92,91,37,4.03,3600
316,chapais,CA,5919850,49.78,-74.85,28.4,86,90,6.93,-18000
317,fukue,JP,1863997,32.69,128.84,48.2,93,90,17.22,32400
318,bolobo,CD,2316748,-2.17,16.23,82.09,32,92,3.47,3600
319,caceres,ES,2520610,39.52,-6.37,50.0,83,28,3.44,3600
320,saanen,CH,2658904,46.49,7.26,39.0,74,75,1.12,3600
321,benghazi,LY,88319,32.12,20.07,60.62,48,100,18.34,7200
322,luena,AO,3347719,-11.78,19.92,67.82,92,96,3.33,3600
323,leh,IN,1264976,34.17,77.58,-9.67,66,0,6.78,19800
324,santa isabel do rio negro,BR,3662489,-0.41,-65.02,98.82,39,71,2.35,-14400
325,itoman,JP,1861280,26.12,127.67,75.2,88,75,17.22,32400
326,sept-iles,CA,6144312,50.2,-66.38,26.01,92,90,14.99,-18000
327,marsh harbour,BS,3571913,26.54,-77.06,70.79,52,50,9.51,-18000
328,santa barbara,US,5392952,34.42,-119.7,64.0,82,75,6.93,-28800
329,makakilo city,US,5850554,21.35,-158.09,78.8,88,1,3.36,-36000
330,souillac,MU,933995,-20.52,57.52,77.0,83,75,13.87,14400
331,novoagansk,RU,1497210,61.94,76.66,-3.1,97,100,7.63,18000
332,virginia beach,US,4791259,36.85,-75.98,54.0,46,40,5.82,-18000
333,huilong,CN,1806840,31.81,121.66,45.0,99,100,1.01,28800
334,kavieng,PG,2094342,-2.57,150.8,83.48,76,74,7.94,36000
335,rocha,UY,3440777,-34.48,-54.33,88.97,35,67,4.32,-10800
336,seguin,US,4727756,29.57,-97.96,75.0,46,1,3.36,-21600
337,hualmay,PE,3939761,-11.1,-77.61,82.53,51,38,11.32,-18000
338,motala,SE,2690960,58.54,15.04,42.8,87,100,11.41,3600
339,kolosovka,RU,1502879,56.47,73.61,17.87,92,100,16.75,21600
340,sultepec,MX,3516480,18.87,-99.95,66.2,29,75,6.93,-21600
341,plettenberg bay,ZA,964712,-34.05,23.37,61.18,76,42,12.95,7200
342,champerico,GT,3598787,14.3,-91.92,91.4,46,20,6.93,-21600
343,klaksvik,FO,2618795,62.23,-6.59,35.6,61,72,16.11,0
344,shestakovo,RU,2016733,56.49,103.96,11.88,93,76,4.18,28800
345,torit,SS,365742,4.41,32.57,84.29,22,45,3.65,10800
346,mbarara,UG,229268,-0.61,30.65,68.43,53,100,1.79,10800
347,kysyl-syr,RU,2021017,63.9,122.76,-24.75,94,100,13.18,32400
348,portland,US,5746545,45.52,-122.68,53.01,76,75,8.05,-28800
349,ust-nera,RU,2120048,64.57,143.2,-40.56,100,90,1.9,36000
350,ucar,AZ,584791,40.52,47.65,30.2,58,75,5.82,14400
351,alice springs,AU,2077895,-23.7,133.88,71.6,19,76,5.82,34200
352,luanda,AO,2240449,-8.84,13.23,80.6,83,20,6.93,3600
353,arlit,NE,2447513,18.74,7.39,76.44,6,94,7.67,3600
354,ossora,RU,2122389,59.24,163.07,26.65,86,83,8.72,43200
355,huancavelica,PE,3939470,-12.77,-74.98,49.8,48,100,12.75,-18000
356,salinopolis,BR,3389822,-0.61,-47.36,82.47,79,99,12.3,-10800
357,sukhothai,TH,1150532,17.25,99.67,70.38,24,27,8.32,25200
358,ahipara,NZ,2194098,-35.17,173.17,64.99,100,0,6.42,46800
359,hobyo,SO,57000,5.35,48.53,79.16,80,87,17.78,10800
360,polkowice,PL,3088435,51.5,16.07,34.0,79,100,4.0,3600
361,colares,PT,2269142,38.8,-9.45,57.99,82,40,3.36,0
362,san patricio,MX,3985168,19.22,-104.7,86.0,74,75,11.41,-21600
363,mount isa,AU,2065594,-20.73,139.5,75.2,100,75,9.17,36000
364,gaoual,GN,2420826,11.75,-13.2,95.95,7,53,6.06,0
365,banda,IN,1277397,25.48,80.33,57.52,61,0,2.21,19800
366,khashuri,GE,613988,41.99,43.6,25.48,84,0,6.17,14400
367,mataram,ID,1635882,-8.58,116.12,78.8,94,40,7.09,28800
368,kargil,IN,1267776,34.57,76.1,-12.64,69,0,2.66,19800
369,yulara,AU,6355222,-25.24,130.99,73.4,19,0,5.82,34200
370,maloy,NO,3146487,61.94,5.11,46.99,75,75,21.92,3600
371,savantvadi,IN,1256968,15.9,73.82,78.8,78,20,2.24,19800
372,san carlos de bariloche,AR,7647007,-41.15,-71.31,67.19,36,18,9.53,-10800
373,takoradi,GH,2294915,4.88,-1.76,82.76,58,22,7.29,0
374,bonfim,BR,3405215,3.08,-59.95,95.99,35,100,3.38,-14400
375,nouadhibou,MR,2377457,20.93,-17.03,69.8,60,0,9.17,0
376,buin,CL,3897774,-33.73,-70.75,91.4,18,0,11.41,-10800
377,seydi,TM,1218420,39.48,62.91,34.45,46,7,7.02,18000
378,yarada,IN,1252783,17.65,83.27,73.4,94,20,2.24,19800
379,keffi,NG,2334652,8.85,7.87,84.2,30,31,3.36,3600
380,swan hill,AU,2147756,-35.34,143.55,61.0,86,15,3.0,39600
381,jaisalmer,IN,1269507,26.91,70.92,68.4,27,38,5.59,19800
382,orebro,SE,2686657,59.27,15.21,43.0,87,75,10.29,3600
383,launceston,AU,2160517,-41.45,147.17,55.0,66,100,10.29,39600
384,talnakh,RU,1490256,69.49,88.4,1.4,84,40,13.42,25200
385,nyurba,RU,2018735,63.28,118.33,-8.86,97,100,4.79,32400
386,worland,US,5843495,44.02,-107.96,39.2,59,1,5.39,-25200
387,beringovskiy,RU,2126710,63.05,179.32,13.86,87,100,4.23,43200
388,husavik,IS,2629833,66.04,-17.34,24.8,92,99,20.8,0
389,ihosy,MG,1064275,-22.4,46.12,63.5,88,19,11.52,10800
390,pacific grove,US,5380437,36.62,-121.92,60.01,87,90,4.7,-28800
391,labuhan,ID,8079926,-6.88,112.21,77.02,85,2,0.72,25200
392,namibe,AO,3347019,-15.2,12.15,75.43,74,19,8.77,3600
393,tsurugi,JP,1849584,36.45,136.63,42.8,60,75,19.46,32400
394,cacador,BR,3468570,-26.78,-51.02,86.14,32,3,6.55,-10800
395,vila,PT,7117100,42.03,-8.16,59.0,87,75,12.75,0
396,cockburn town,TC,3576994,21.46,-71.14,75.2,77,54,12.37,-18000
397,chokwe,MZ,1048364,-24.53,32.98,86.52,45,0,4.18,7200
398,dukat,RU,2125906,62.55,155.55,-14.04,98,100,5.35,39600
399,coquimbo,CL,3893629,-29.95,-71.34,81.0,73,48,13.87,-10800
400,lorengau,PG,2092164,-2.02,147.27,83.61,78,100,7.7,36000
401,waipawa,NZ,2206874,-41.41,175.52,68.0,93,8,25.28,46800
402,borovoy,RU,1508894,55.43,86.08,10.4,66,99,11.18,25200
403,kupino,RU,1501365,54.37,77.3,15.98,86,100,19.86,25200
404,san lawrenz,MT,2562619,36.06,14.2,59.0,93,20,5.82,3600
405,balakhninskiy,RU,2027196,58.01,114.28,13.42,96,100,4.05,28800
406,nanortalik,GL,3421765,60.14,-45.24,22.21,72,100,18.99,-10800
407,gawler,AU,2071059,-34.6,138.73,62.01,87,0,5.82,37800
408,tanout,NE,2439155,14.97,8.89,69.8,11,85,11.41,3600
409,gizo,SB,2108857,-8.1,156.84,76.82,82,88,3.76,39600
410,aklavik,CA,5882953,68.22,-135.01,-18.4,68,75,8.05,-25200
411,tagusao,PH,1684245,9.19,117.81,74.21,91,70,2.98,28800
412,luderitz,NA,3355672,-26.65,15.16,71.6,49,29,25.28,7200
413,san cristobal,VE,3628473,7.77,-72.22,78.8,74,75,4.7,-14400
414,champasak,LA,1657818,14.75,106.0,70.43,87,89,1.97,25200
415,broome,US,5110365,42.25,-75.83,39.0,74,90,10.29,-18000
416,rio grande,BR,3451138,-32.03,-52.1,87.8,62,40,12.75,-10800
417,saint-joseph,RE,6690296,-21.37,55.62,78.8,74,75,14.99,14400
418,almaznyy,RU,582447,48.04,40.05,30.2,80,13,8.95,10800
419,hammerfest,NO,779683,70.66,23.68,15.8,92,75,6.93,3600
420,riyadh,SA,108410,24.69,46.72,48.2,57,0,5.82,10800
421,pedernales,DO,3495137,18.04,-71.74,82.4,65,75,9.17,-14400
422,isangel,VU,2136825,-19.55,169.27,75.2,94,20,13.0,39600
423,kupang,ID,2057087,-10.17,123.58,84.02,74,63,5.39,28800
424,malanje,AO,2239862,-9.54,16.34,67.89,90,70,4.34,3600
425,kahului,US,5847411,20.89,-156.47,75.2,60,20,3.36,-36000
426,mizdah,LY,2214827,31.45,12.98,62.51,41,11,5.93,7200
427,hvide sande,DK,2619537,56.0,8.13,42.01,93,100,9.17,3600
428,grand gaube,MU,934479,-20.01,57.66,77.0,83,75,13.87,14400
429,port-cartier,CA,6111696,50.03,-66.87,26.01,92,90,14.99,-18000
430,honolulu,US,5856195,21.31,-157.86,78.8,73,20,5.82,-36000
431,saint-michel-des-saints,CA,6138802,46.68,-73.92,32.0,9,98,1.01,-18000
432,touros,BR,3386213,-5.2,-35.46,86.0,66,40,14.99,-10800
433,korla,CN,1529376,41.76,86.15,15.71,49,2,2.51,28800
434,xudat,AZ,584715,41.63,48.68,36.0,65,79,3.78,14400
435,turayf,SA,101312,31.67,38.66,41.0,86,0,4.7,10800
436,tanda,IN,1255024,26.55,82.65,54.55,71,0,5.91,19800
437,itarema,BR,3393692,-2.92,-39.92,87.33,62,77,13.2,-10800
438,bowen,AU,2174444,-20.02,148.23,77.0,100,90,5.82,36000
439,port augusta,AU,2063056,-32.5,137.77,68.0,82,75,12.75,37800
440,ferme-neuve,CA,5952330,46.7,-75.45,32.95,99,100,3.44,-18000
441,honningsvag,NO,779554,70.98,25.97,24.8,73,90,16.11,3600
442,araouane,ML,2460954,18.9,-3.53,78.17,8,79,3.89,0
443,muli,MV,1337617,2.92,73.57,81.48,75,82,10.63,18000
444,rabo de peixe,PT,3372745,37.8,-25.58,62.6,88,20,10.29,-3600
445,najran,SA,103630,17.49,44.13,55.4,59,5,9.17,10800
446,astoria,US,5711847,46.19,-123.83,53.01,76,75,11.41,-28800
447,sahuaripa,MX,3988265,29.05,-109.23,69.51,42,0,2.01,-25200
448,zabol,AF,1121143,32.25,67.25,25.63,97,91,5.73,16200
449,aktau,KZ,610612,43.65,51.2,37.4,72,40,17.9,18000
450,mumford,GH,2297810,5.26,-0.76,81.73,56,79,7.81,0
451,garden city,US,4993659,42.33,-83.33,37.4,94,90,12.75,-18000
452,frankfort,ZA,1003764,-27.27,28.48,63.64,78,65,4.85,7200
453,hervey bay,AU,2146219,-25.3,152.85,75.2,88,90,4.7,36000
454,waseca,US,5051902,44.08,-93.51,30.99,86,40,3.36,-21600
455,buba,GW,2374588,11.58,-15.0,99.18,8,92,3.47,0
456,pyay,MM,1299154,18.82,95.22,56.77,73,86,2.77,23400
457,novikovo,RU,487928,51.15,37.89,27.27,93,64,10.8,10800
458,belmonte,BR,3470137,-15.86,-38.88,84.2,83,40,4.7,-10800
459,bandarbeyla,SO,64814,9.49,50.81,78.26,79,0,28.88,10800
460,ponta delgada,PT,3372783,37.73,-25.67,62.6,88,20,10.29,-3600
461,apata,RO,686281,45.95,25.52,33.01,89,9,1.7,7200
462,gasa,PS,281133,31.5,34.47,51.01,81,6,3.36,7200
463,north bend,US,5742974,43.41,-124.22,54.0,81,75,9.17,-28800
464,staraya stanitsa,RU,489062,48.35,40.28,28.27,92,0,8.16,10800
465,oron,NG,2325688,4.83,8.23,76.37,70,60,0.81,3600
466,mendi,PG,2090990,-6.18,143.65,53.06,98,100,3.56,36000
467,maxixe,MZ,1039536,-23.86,35.35,82.4,78,20,11.41,7200
468,dutse,NG,2344245,11.76,9.34,66.2,21,0,9.35,3600
469,domvraina,GR,259292,38.25,22.98,55.99,81,90,3.6,7200
470,usinsk,RU,863061,65.99,57.53,-6.12,96,99,7.76,10800
471,uyuni,BO,3901903,-20.46,-66.83,67.98,22,0,8.14,-14400
472,marsa matruh,EG,352733,31.35,27.25,53.6,66,100,6.42,7200
473,antanifotsy,MG,1070661,-19.65,47.32,58.86,95,100,4.36,10800
474,smalininkai,LT,598655,55.07,22.58,37.69,83,100,7.02,7200
475,bundaberg,AU,2173323,-24.85,152.35,75.2,88,90,4.7,36000
476,andenes,NO,3163146,69.31,16.12,23.0,57,100,21.92,3600
477,barcelos,PT,2742416,41.54,-8.62,55.4,87,20,12.75,0
478,buriti alegre,BR,3468745,-18.14,-49.04,75.18,92,100,1.34,-10800
479,faanui,PF,4034551,-16.48,-151.75,82.99,73,100,10.45,-36000
480,talaya,RU,2120769,61.38,152.75,-27.74,97,100,1.34,39600
481,teya,RU,1489656,60.38,92.63,6.24,93,53,5.37,25200
482,igarka,RU,1505991,67.47,86.58,-2.74,96,100,12.06,25200
483,mackenzie,CA,6063191,55.3,-123.17,21.2,92,90,3.36,-28800
484,port keats,AU,2063039,-14.25,129.55,84.45,83,58,5.84,34200
485,soeng sang,TH,1606213,14.43,102.46,69.04,78,100,3.6,25200
486,eenhana,NA,3357804,-17.47,16.33,86.0,45,100,2.24,7200
487,mongo,TD,2427637,12.18,18.69,63.7,16,0,6.17,3600
488,tongchuan,CN,1795196,35.08,109.09,27.64,79,92,4.29,28800
489,bonavista,CA,5905393,48.65,-53.11,33.01,60,100,5.99,-12600
490,biltine,TD,244878,14.53,20.92,63.57,15,0,11.07,3600
491,abha,SA,110690,18.22,42.51,51.8,34,0,6.93,10800
492,raton,US,5486795,36.9,-104.44,53.01,33,1,3.36,-25200
493,lukovetskiy,RU,533418,64.3,41.92,-0.4,84,40,2.24,10800
494,tazovskiy,RU,1489853,67.47,78.7,-4.13,97,82,5.57,18000
495,caborca,MX,3996893,30.58,-111.1,73.0,45,0,4.0,-25200
496,coahuayana,MX,4013679,18.73,-103.68,75.2,57,40,6.13,-21600
497,carmen,MX,3530599,18.63,-91.83,84.2,51,40,13.87,-21600
498,mehamn,NO,778707,71.04,27.85,24.8,73,90,16.11,3600
499,sovetskiy,RU,1491230,61.36,63.58,-0.35,96,100,5.91,18000
500,tuim,RU,1489048,54.34,89.93,6.76,77,100,6.04,25200
501,laizhou,CN,1804578,37.18,119.93,31.1,74,100,4.09,28800
502,estelle,US,4323873,29.85,-90.11,54.0,93,90,8.05,-21600
503,berlevag,NO,780687,70.86,29.09,17.6,72,75,16.11,3600
504,chowchilla,US,5336667,37.12,-120.26,64.0,87,90,5.82,-28800
505,goderich,CA,5962442,43.75,-81.72,35.01,83,100,3.0,-18000
506,winslow,US,5321473,35.02,-110.7,59.0,43,1,9.17,-25200
507,alamogordo,US,5454627,32.9,-105.96,62.01,29,1,10.29,-25200
508,westport,US,4845585,41.14,-73.36,48.0,52,1,10.29,-18000
509,barra do corda,BR,3406318,-5.5,-45.25,79.25,93,100,2.15,-10800
510,amapa,BR,3407762,1.0,-52.0,75.92,96,100,4.94,-10800
511,macomer,IT,3174367,40.26,8.77,48.2,93,30,3.36,3600
512,rawson,AR,3839307,-43.3,-65.1,59.31,59,0,12.12,-10800
513,berekum,GH,2303125,7.45,-2.58,77.7,11,18,3.22,0
514,dalby,AU,2169535,-27.18,151.27,70.0,88,79,5.82,36000
515,parry sound,CA,6098747,45.35,-80.03,35.01,99,100,5.01,-18000
516,dibulla,CO,3685223,11.27,-73.31,84.2,66,20,16.11,-18000
517,angoram,PG,2100765,-4.06,144.07,74.03,98,100,2.59,36000
518,ca mau,VN,1586443,9.18,105.15,69.8,95,0,2.06,25200
519,krasnoselkup,RU,1502073,65.7,82.47,0.1,95,100,9.4,18000
520,thunder bay,CA,6166142,48.4,-89.32,32.0,80,90,9.17,-18000
521,naze,JP,1855540,28.37,129.48,71.6,100,75,10.29,32400
522,ribeira brava,PT,2263905,32.65,-17.07,62.6,67,40,4.7,0
523,buala,SB,2109528,-8.14,159.59,81.03,79,100,4.88,39600
524,gamboula,CF,2386756,4.12,15.14,70.52,24,0,1.61,3600
525,coihaique,CL,3894426,-45.58,-72.07,68.0,34,41,9.17,-10800
526,churapcha,RU,2025241,62.0,132.43,-33.32,92,100,8.48,32400
527,aktash,RU,1511997,50.3,87.73,0.7,85,54,6.62,25200
528,mangrol,IN,1263752,21.12,70.12,71.71,60,0,11.34,19800
529,mahanje,TZ,155285,-9.93,35.33,68.5,97,100,8.01,10800
530,moissala,TD,2427697,8.34,17.77,71.26,14,0,5.26,3600
531,bara,NG,2347758,10.37,10.73,69.57,19,0,7.7,3600
532,erdenet,MN,2031405,49.03,104.08,4.66,68,80,5.17,28800
533,letka,RU,535639,59.6,49.42,-7.64,98,61,4.18,10800
534,maniitsoq,GL,3421982,65.42,-52.9,12.09,75,100,1.74,-10800
535,balikpapan,ID,1650527,-1.27,116.83,77.0,94,20,3.36,28800
536,astana,KZ,1526273,51.18,71.45,24.8,92,90,42.5,21600
537,meulaboh,ID,1214488,4.14,96.13,81.37,83,93,5.46,25200
538,fasa,IR,134721,28.94,53.65,41.0,65,0,4.7,12600
539,kisangani,CD,212730,0.52,25.2,74.89,41,39,1.74,7200
540,iwanai,JP,2129868,42.97,140.51,24.78,81,100,7.07,32400
541,japura,ID,1642773,-0.32,102.35,74.05,98,100,2.89,25200
542,funtua,NG,2342490,11.52,7.31,63.34,19,0,8.61,3600
543,panguna,PG,2088659,-6.32,155.48,74.68,87,100,1.34,39600
544,dergachi,RU,566456,51.23,48.77,17.76,91,3,11.92,14400
545,belomorsk,RU,577922,64.52,34.77,13.08,94,91,12.08,10800
546,bobcaygeon,CA,8125787,44.55,-78.54,37.99,86,90,9.17,-18000
547,bam,IR,141736,29.11,58.36,46.6,38,31,13.09,12600
548,micheweni,TZ,153955,-4.97,39.83,81.57,86,98,5.86,10800
549,timizart,DZ,2476396,36.8,4.27,57.42,75,0,18.45,3600
550,saryozek,KZ,1519580,44.36,77.98,16.7,86,21,3.44,21600
551,voznesenye,RU,471160,61.01,35.48,21.74,75,66,11.9,10800
552,sistranda,NO,3139597,63.73,8.83,43.0,93,40,8.05,3600
553,pangai,TO,4032369,-19.8,-174.35,80.6,88,75,2.24,46800
554,kurilsk,RU,2123979,45.23,147.88,15.62,74,94,21.41,36000
555,ginir,ET,336454,7.13,40.7,63.95,79,100,4.23,10800
556,nantucket,US,4944903,41.28,-70.1,46.99,70,1,17.22,-18000
557,ambovombe,MG,1079048,-25.17,46.08,68.27,78,0,5.68,10800
558,camacha,PT,2270385,33.08,-16.33,62.6,67,20,2.24,0
559,broken hill,AU,2173911,-31.95,141.43,71.6,40,0,10.29,37800
560,paita,PE,3694112,-5.09,-81.11,62.6,100,20,17.22,-18000
561,sal rei,CV,3374235,16.18,-22.92,71.6,78,75,17.22,-3600
562,barsi,IN,1276856,18.23,75.7,73.4,32,0,8.43,19800
563,mandera,KE,187896,3.94,41.87,90.37,38,59,7.14,10800
564,green river,US,5826559,41.53,-109.47,39.99,69,90,4.7,-25200
565,palana,RU,2122262,59.12,159.97,20.23,75,100,6.51,43200
566,tessalit,ML,2449893,20.2,1.01,76.41,10,43,3.6,0
567,mosquera,CO,3674292,4.71,-74.23,68.0,56,40,13.87,-18000
568,saint-pierre,RE,935214,-21.34,55.48,78.8,74,75,14.99,14400
569,xining,CN,1788852,36.62,101.77,9.0,76,1,3.98,28800
570,hambantota,LK,1244926,6.12,81.12,75.2,94,5,4.7,19800
571,bayir,TR,304183,37.27,28.22,50.0,81,75,6.93,10800
572,arman,RU,2127060,59.7,150.17,3.2,83,80,17.67,39600
573,diamantino,BR,3464724,-14.41,-56.45,82.45,82,100,2.89,-14400
574,basco,PH,1726449,20.45,121.97,75.13,86,45,11.63,28800
575,bo phloi,TH,1153850,14.32,99.52,65.41,55,98,4.38,25200
576,delmas,ZA,1011031,-26.15,28.68,70.0,68,84,2.77,7200
577,moreira sales,BR,3456763,-24.06,-53.01,84.4,63,4,3.58,-10800
578,beroroha,MG,1066831,-21.67,45.17,73.6,80,50,4.34,10800
579,matagami,CA,6067747,49.75,-77.63,28.4,92,90,5.82,-18000
580,peniche,PT,2264923,39.36,-9.38,57.0,81,20,4.7,0
581,ishigaki,JP,1861416,24.34,124.16,70.65,71,69,25.88,32400
582,ust-ishim,RU,1488206,57.69,71.17,20.26,94,100,9.84,21600
583,shiyan,CN,1794903,32.65,110.78,30.49,91,69,2.28,28800
584,maracineni,RO,673893,45.2,26.8,30.2,74,5,5.82,7200
585,viedma,AR,3832899,-40.81,-63.0,69.37,37,31,23.4,-10800
586,la ronge,CA,6050066,55.1,-105.28,21.2,92,90,8.05,-21600
587,lakes entrance,AU,2160735,-37.88,147.98,64.0,83,1,1.01,39600
588,novyy urgal,RU,2047258,51.07,132.56,-23.62,99,82,1.52,36000
589,del rio,US,5520076,29.36,-100.9,75.2,23,1,13.87,-21600
590,veinticinco de mayo,AR,3833112,-35.43,-60.17,96.85,15,29,8.97,-10800
591,fairbanks,US,5861897,64.84,-147.72,-14.01,73,100,2.51,-32400
592,mae hong son,TH,1152222,19.3,97.97,47.86,40,3,1.9,25200
593,paine,CL,3877739,-33.82,-70.75,91.4,27,0,9.17,-10800
594,agadir,MA,2561668,30.42,-9.6,60.8,77,0,4.7,3600
595,melo,UY,3441702,-32.37,-54.18,91.17,35,75,3.74,-10800
596,esna,EG,355449,25.29,32.55,59.0,51,0,3.91,7200
597,kemin,KG,1528606,42.78,75.69,18.88,54,0,3.36,21600
598,bahia blanca,AR,3865086,-38.72,-62.27,71.1,42,53,25.48,-10800
599,tigil,RU,2120612,57.8,158.67,23.27,73,76,16.53,43200
600,eureka,US,5563397,40.8,-124.16,57.0,76,90,10.29,-28800
601,baruun-urt,MN,2032614,46.68,113.28,9.54,83,0,10.38,28800
602,hastings,GB,2647356,50.86,0.57,50.0,100,100,23.04,0
603,black river,JM,3491355,18.03,-77.85,82.4,61,20,13.87,-18000
604,nelson bay,AU,2155562,-32.72,152.15,75.2,88,90,9.17,39600
605,andros town,BS,3572906,24.7,-77.77,73.4,60,40,9.17,-18000
606,hami,CN,1529484,42.8,93.45,9.9,71,96,2.39,28800
607,nanakuli,US,5851349,21.39,-158.15,78.8,88,1,3.36,-36000
608,khandyga,RU,2022773,62.67,135.6,-45.83,89,0,1.92,32400
609,granite city,US,4239714,38.7,-90.15,46.99,68,90,3.36,-21600
610,rapid city,US,5768233,44.08,-103.23,48.99,39,1,25.28,-25200
611,durban,ZA,1007311,-29.86,31.03,75.0,94,75,12.75,7200
612,sandnessjoen,NO,3140301,66.02,12.63,37.4,80,75,8.05,3600
613,beyneu,KZ,610298,45.32,55.2,29.8,82,66,18.25,18000
614,okhotsk,RU,2122605,59.38,143.3,-14.22,73,65,10.63,36000
615,warrnambool,AU,2144528,-38.38,142.48,53.01,94,82,6.96,39600
616,dutlwe,BW,933787,-23.98,23.9,70.29,68,7,2.06,7200
617,kommunisticheskiy,RU,1502750,61.68,64.48,-1.93,97,100,4.94,18000
618,dillon,US,4576653,34.42,-79.37,57.0,37,1,5.82,-18000
619,luorong,CN,1801850,24.41,109.61,41.14,81,0,6.85,28800
620,manoel urbano,BR,3663495,-8.84,-69.26,91.78,50,96,3.98,-18000
621,minab,IR,123941,27.15,57.08,53.6,76,0,2.24,12600
622,mezen,RU,527321,65.85,44.24,-1.48,95,99,7.52,10800
623,medvedevo,RU,528056,56.63,47.8,19.4,73,92,8.95,10800
624,karibib,NA,3356332,-21.93,15.83,69.73,37,0,5.03,7200
625,ouesso,CG,2255564,1.61,16.05,73.71,27,0,1.05,3600
626,shingu,JP,1847947,33.73,135.98,54.68,89,100,32.84,32400
627,pitkyaranta,RU,509234,61.57,31.48,19.83,67,1,9.8,10800
628,evensk,RU,2125693,61.95,159.23,14.2,86,100,13.15,39600
629,daru,PG,2098329,-9.08,143.21,75.58,94,64,3.56,36000
630,bushenyi,UG,234081,-0.59,30.21,70.86,49,100,2.19,10800
631,banswada,IN,1277216,18.38,77.88,71.08,40,0,8.93,19800
632,tahta,EG,347634,26.77,31.5,57.2,47,0,6.93,7200
633,almeria,ES,2521883,37.17,-2.33,53.6,81,20,5.82,3600
634,khotynets,RU,549341,53.13,35.4,32.32,86,95,16.33,10800
635,znojmo,CZ,3061344,48.86,16.05,33.01,92,90,4.7,3600
636,port hedland,AU,2063042,-20.32,118.57,84.2,89,0,6.93,28800
637,pimentel,PE,3693584,-6.84,-79.93,66.2,29,75,21.92,-18000
638,blonie,PL,775820,52.2,20.62,34.0,92,90,4.7,3600
639,naryan-mar,RU,523392,67.67,53.09,-8.37,96,100,8.05,10800
640,chalon-sur-saone,FR,3027484,46.78,4.85,46.0,93,90,4.7,3600
641,quebo,GW,2370473,11.33,-14.93,73.94,36,99,4.41,0
642,olinda,BR,3393536,-8.01,-34.86,86.0,74,20,9.17,-10800
643,fushan,CN,1810920,37.5,121.26,37.9,82,100,8.88,28800
644,wanning,CN,1791779,18.8,110.4,61.12,85,100,6.29,28800
645,ovalle,CL,3877918,-30.6,-71.2,82.78,29,32,13.73,-10800
646,taoudenni,ML,2450173,22.68,-3.98,77.65,19,24,14.56,0
647,peto,MX,3521596,20.13,-88.92,86.4,40,0,4.83,-21600
648,semirom,IR,116406,31.42,51.57,12.06,46,0,0.29,12600
649,sakakah,SA,102527,29.97,40.21,44.6,52,0,3.44,10800
650,mandiana,GN,2417795,10.63,-8.68,78.71,10,66,4.05,0
651,ixtapa,MX,4004293,20.7,-105.2,79.0,69,20,8.05,-21600
652,ostrovnoy,RU,556268,68.05,39.51,-2.06,98,75,10.96,10800
653,bon air,US,4748305,37.52,-77.56,53.01,40,75,6.93,-18000
654,koulikoro,ML,2454532,14.0,-7.75,77.76,9,98,8.21,0
655,turukhansk,RU,1488903,65.82,87.98,0.41,96,100,6.33,25200
656,navalmoral de la mata,ES,2513324,39.89,-5.54,42.01,84,66,2.64,3600
657,kutoarjo,ID,1638981,-7.72,109.91,70.47,90,57,1.9,25200
658,batemans bay,AU,2176639,-35.72,150.18,66.99,86,43,1.12,39600
659,puerto princesa,PH,1692685,9.74,118.74,78.8,83,20,2.24,28800
660,tema,GH,2294700,5.67,-0.02,82.4,78,39,4.7,0
661,petropavlovsk-kamchatskiy,RU,2122104,53.05,158.65,21.2,100,75,6.71,43200
662,bintulu,MY,1737486,3.17,113.03,78.8,94,75,2.24,28800
663,lamu,KE,189741,-2.27,40.9,81.16,88,100,12.71,10800
664,toccoa,US,4226722,34.58,-83.33,57.99,28,90,5.82,-18000
665,troitsko-pechorsk,RU,481548,62.71,56.2,-1.8,96,100,3.76,10800
666,stokmarknes,NO,3136690,68.56,14.91,26.6,53,100,14.99,3600
667,katherine,AU,2068655,-14.47,132.27,80.6,78,27,6.93,34200
668,batagay-alyta,RU,2027042,67.8,130.41,-31.65,38,0,4.83,32400
669,baghdad,IQ,98182,33.34,44.4,46.4,70,0,3.36,10800
670,wuwei,CN,1803936,37.93,102.64,17.47,84,0,0.98,28800
671,omboue,GA,2396853,-1.57,9.26,76.84,94,87,3.09,3600
672,jumla,NP,1283285,29.27,82.18,22.26,60,10,5.21,20700
673,chickasha,US,4533029,35.05,-97.94,62.6,54,1,8.05,-21600
674,lagos,NG,2332453,6.58,3.75,84.2,45,3,2.24,3600
675,kyra,RU,2021041,49.58,111.98,1.83,78,34,2.13,32400
676,san isidro,PE,3929631,-12.12,-77.05,82.4,65,2,14.99,-18000
677,athabasca,CA,5887916,54.72,-113.29,26.92,92,91,9.82,-25200
678,chulman,RU,2025261,56.85,124.91,-3.5,97,100,2.57,32400
679,sukumo,JP,1851462,32.93,132.73,51.49,88,100,18.68,32400
680,yatou,CN,1786855,37.15,122.38,43.47,81,100,12.88,28800
681,kyabram,AU,2160910,-36.32,145.05,61.0,74,0,7.96,39600
682,martinsville,US,4771808,36.69,-79.87,51.01,43,1,5.82,-18000
683,geraldton,AU,2070998,-28.77,114.6,62.6,93,90,5.82,28800
684,gat,IL,293842,31.61,34.76,51.01,81,0,3.36,7200
685,yertsevo,RU,467084,60.8,40.09,18.41,91,100,8.81,10800
686,port blair,IN,1259385,11.67,92.75,77.16,63,97,10.65,19800
687,guadalupe y calvo,MX,4005370,26.1,-106.97,59.97,39,0,8.97,-25200
688,axim,GH,2303611,4.87,-2.24,78.15,72,47,3.74,0
689,moron,AR,3430545,-34.65,-58.62,91.4,33,33,8.05,-10800
690,moranbah,AU,6533368,-22.0,148.05,74.44,92,100,3.67,36000
691,dingle,PH,1714733,11.0,122.67,73.27,90,0,2.8,28800
692,stanger,ZA,952734,-29.33,31.29,75.0,94,75,12.75,7200
693,ust-maya,RU,2013918,60.42,134.53,-39.3,95,79,4.52,32400
694,quibdo,CO,3671116,5.69,-76.66,82.4,78,75,1.48,-18000
695,sagua la grande,CU,3541440,22.81,-80.08,80.6,51,75,4.7,-18000
696,hofn,IS,2630299,64.25,-15.21,39.25,63,100,31.0,0
697,poso,ID,1630723,-1.4,120.75,67.21,72,71,4.07,28800
698,maharajganj,IN,1264433,27.13,83.57,53.69,86,0,2.95,19800
699,sarai,RU,498711,53.75,41.02,28.83,95,100,19.64,10800
700,maues,BR,3395062,-3.38,-57.72,87.44,66,68,2.66,-14400
701,hays,US,4696788,30.05,-98.03,75.99,46,1,9.17,-21600
702,george,ZA,1002145,-33.96,22.46,57.2,82,0,6.93,7200
