,City Name,City Country,City ID,City Lat,City Long,Temps (F),Humidity %,Cloudiness %,Windspeed (mph),City Datetime
0,ujiie,JP,1849367,36.68,139.97,48.2,93,75,13.87,1580179815
1,puerto madryn,AR,3840092,-42.77,-65.04,77.14,17,10,15.21,1580179816
2,antofagasta,CL,3899539,-23.65,-70.4,72.0,88,90,8.05,1580179816
3,lompoc,US,5367788,34.64,-120.46,60.01,93,1,11.41,1580179200
4,port elizabeth,ZA,964420,-33.92,25.57,57.2,71,33,4.7,1580179802
5,narsaq,GL,3421719,60.92,-46.05,14.0,56,80,5.82,1580179245
6,xuchang,CN,1788046,34.02,113.82,39.2,69,0,2.24,1580179600
7,bluff,NZ,2206939,-46.6,168.33,68.0,54,97,7.0,1580179820
8,pevek,RU,2122090,69.7,170.31,-0.11,87,100,2.39,1580179821
9,desaguadero,PE,3941492,-16.57,-69.04,48.96,73,100,4.99,1580179821
10,ushuaia,AR,3833367,-54.8,-68.3,46.4,93,75,8.05,1580179572
11,rikitea,PF,4030556,-23.12,-134.97,80.13,75,71,7.4,1580179822
12,chuy,UY,3443061,-33.7,-53.46,60.3,76,0,4.99,1580179254
13,severomorsk,RU,496278,69.07,33.42,-27.4,67,40,3.87,1580179824
14,ixtapa,MX,4004293,20.7,-105.2,75.2,73,75,3.2,1580179559
15,mataura,NZ,6201424,-46.19,168.86,68.0,54,67,7.0,1580179825
16,qaanaaq,GL,3831208,77.48,-69.36,-11.9,67,48,3.2,1580179826
17,port alfred,ZA,964432,-33.59,26.89,60.01,68,13,1.01,1580179828
18,hermanus,ZA,3366880,-34.42,19.23,59.0,97,10,7.16,1580179829
19,dargaville,NZ,2191911,-35.93,173.88,74.52,70,75,8.5,1580179804
20,skive,DK,2613731,56.57,9.03,42.8,93,100,5.82,1580179830
21,lorengau,PG,2092164,-2.02,147.27,84.33,78,97,12.57,1580179831
22,punta arenas,CL,3874787,-53.15,-70.92,46.4,81,41,11.41,1580179695
23,hami,CN,1529484,42.8,93.45,12.42,73,24,1.7,1580179504
24,sarangani,PH,1687186,5.4,125.46,82.8,77,91,11.48,1580179833
25,miyako,JP,2111884,39.64,141.95,39.13,63,100,11.92,1580179833
26,kavieng,PG,2094342,-2.57,150.8,85.06,73,6,10.16,1580179834
27,mapiripan,CO,3792394,2.89,-72.13,79.83,60,80,4.12,1580179834
28,chokurdakh,RU,2126123,70.63,147.92,-21.78,97,100,8.5,1580179835
29,muriwai beach,NZ,2186363,-36.82,174.45,78.01,73,60,11.41,1580179466
30,egvekinot,RU,4031742,66.32,-179.17,-9.81,89,0,6.49,1580179417
31,sambava,MG,1056899,-14.27,50.17,69.03,85,30,2.26,1580179836
32,piacabucu,BR,3454005,-10.41,-36.43,79.56,83,99,9.48,1580179837
33,barrow,US,5880054,71.29,-156.79,-22.0,74,90,6.93,1580179838
34,dikson,RU,1507390,73.51,80.55,-11.22,96,90,4.76,1580179838
35,krasnovishersk,RU,542184,60.41,57.08,-9.98,96,100,3.69,1580179839
36,busselton,AU,2075265,-33.65,115.33,95.0,19,0,10.83,1580179839
37,georgetown,MY,1735106,5.41,100.34,86.0,78,20,6.93,1580179146
38,east london,ZA,1006984,-33.02,27.91,65.41,74,100,5.84,1580179840
39,tuktoyaktuk,CA,6170031,69.45,-133.04,-22.0,74,40,12.75,1580179841
40,omboue,GA,2396853,-1.57,9.26,75.36,95,0,0.49,1580179242
41,ternate,ID,1624041,0.8,127.4,84.43,70,63,5.55,1580179842
42,ostrovnoy,RU,556268,68.05,39.51,3.72,99,68,6.15,1580179843
43,khatanga,RU,2022572,71.97,102.5,-15.7,91,0,8.01,1580179843
44,coquimbo,CL,3893629,-29.95,-71.34,64.4,88,0,5.82,1580179289
45,sibolga,ID,1213855,1.74,98.78,72.84,97,100,2.55,1580179554
46,labuhan,ID,8079926,-6.88,112.21,87.42,66,38,1.83,1580179289
47,castro,BR,3466704,-24.79,-50.01,64.0,96,47,3.49,1580179254
48,bredasdorp,ZA,1015776,-34.53,20.04,50.0,97,30,4.29,1580179846
49,hobart,AU,2163355,-42.88,147.33,77.0,33,32,19.46,1580179671
50,tiksi,RU,2015306,71.69,128.87,-24.14,89,100,5.14,1580179847
51,mezen,RU,527321,65.85,44.24,6.96,97,100,10.11,1580179376
52,tasiilaq,GL,3424607,65.61,-37.64,30.2,58,100,17.22,1580179848
53,qinzhou,CN,1797551,21.95,108.62,53.17,59,17,12.8,1580179849
54,kulob,TJ,1221194,37.91,69.78,39.2,86,90,2.24,1580179849
55,benicia,US,5327550,38.05,-122.16,55.99,87,75,6.93,1580179850
56,geraldton,AU,2070998,-28.77,114.6,82.4,65,0,12.75,1580179465
57,micheweni,TZ,153955,-4.97,39.83,81.16,84,6,7.34,1580179300
58,scottsbluff,US,5699404,41.87,-103.67,35.01,86,90,5.82,1580179852
59,souillac,MU,933995,-20.52,57.52,73.0,88,75,3.36,1580179256
60,albany,US,5106841,42.6,-73.97,35.6,100,90,9.17,1580179811
61,okhotsk,RU,2122605,59.38,143.3,-7.38,71,0,9.08,1580179446
62,mastic beach,US,5126209,40.77,-72.85,42.01,60,90,6.93,1580179334
63,liwale,TZ,155921,-9.77,37.93,71.11,96,100,5.35,1580179856
64,nome,US,5870133,64.5,-165.41,-0.4,54,1,3.36,1580179077
65,butaritari,KI,2110227,3.07,172.79,84.47,78,95,23.11,1580179857
66,sungaipenuh,ID,1625929,-2.08,101.38,71.82,83,100,1.97,1580179857
67,port hardy,CA,6111862,50.7,-127.42,44.6,81,75,25.28,1580179859
68,norman wells,CA,6089245,65.28,-126.83,-18.4,68,40,5.82,1580179437
69,hithadhoo,MV,1282256,-0.6,73.08,81.55,79,100,15.03,1580179860
70,hilo,US,5855927,19.73,-155.09,80.6,54,1,13.87,1580179861
71,longyearbyen,SJ,2729907,78.22,15.64,5.0,71,89,3.36,1580179861
72,mazara del vallo,IT,6541759,37.66,12.59,51.8,87,20,9.17,1580179862
73,tilichiki,RU,2120591,60.47,166.1,16.63,92,100,6.69,1580179862
74,pahrump,US,5509851,36.21,-115.98,53.01,29,1,3.36,1580179760
75,raudeberg,NO,3146487,61.99,5.14,39.2,80,78,18.34,1580179716
76,flin flon,CA,5954718,54.77,-101.86,9.81,96,7,3.36,1580179307
77,constitucion,CL,3893726,-35.33,-72.42,58.46,87,0,8.75,1580179865
78,vaini,TO,4032243,-21.2,-175.2,84.2,79,40,3.36,1580179866
79,cidreira,BR,3466165,-30.18,-50.21,74.3,77,77,12.68,1580179297
80,kodiak,US,5866583,57.79,-152.41,14.0,61,1,3.36,1580179846
81,tucurui,BR,3385935,-3.77,-49.67,73.96,93,100,3.27,1580179868
82,prainha,BR,3391287,-1.8,-53.48,76.35,85,4,3.42,1580179553
83,itarema,BR,3393692,-2.92,-39.92,76.59,90,100,3.44,1580179564
84,coihaique,CL,3894426,-45.58,-72.07,57.2,71,75,5.82,1580179259
85,san patricio,MX,3985168,19.22,-104.7,75.2,83,5,5.82,1580179870
86,new norfolk,AU,2155415,-42.78,147.06,77.0,33,100,21.92,1580179871
87,namatanai,PG,2090021,-3.67,152.43,83.89,77,21,14.7,1580179287
88,little current,CA,6055388,45.98,-81.92,28.99,79,20,5.82,1580179873
89,hasaki,JP,2112802,35.73,140.83,48.2,100,75,12.75,1580179873
90,akyab,MM,1295765,20.15,92.9,64.04,58,0,6.76,1580179874
91,ancud,CL,3899695,-41.87,-73.82,60.8,100,90,5.82,1580179296
92,palmer,US,4946620,42.16,-72.33,39.2,64,90,9.17,1580179177
93,yulara,AU,6355222,-25.24,130.99,100.4,10,0,17.22,1580179875
94,banamba,ML,2460546,13.55,-7.45,69.48,10,100,8.41,1580179876
95,upernavik,GL,3418910,72.79,-56.15,-15.12,94,100,4.79,1580179876
96,arraial do cabo,BR,3471451,-22.97,-42.03,76.71,89,24,18.34,1580179450
97,nanakuli,US,5851349,21.39,-158.15,82.4,57,1,8.05,1580179878
98,mao,ES,2514301,39.89,4.27,55.4,82,95,13.87,1580179878
99,pimentel,PE,3693584,-6.84,-79.93,66.2,29,100,17.22,1580179879
100,yalta,UA,688533,44.5,34.17,37.71,77,54,5.95,1580179879
101,hastings,GB,2647356,50.86,0.57,43.0,93,100,10.29,1580179880
102,saint-philippe,RE,935215,-21.36,55.77,69.8,68,26,10.29,1580179104
103,nelson bay,AU,2155562,-32.72,152.15,96.01,58,75,11.41,1580179881
104,saskylakh,RU,2017155,71.92,114.08,-23.1,95,7,4.27,1580179882
105,aklavik,CA,5882953,68.22,-135.01,-22.0,67,90,11.41,1580179882
106,lodja,CD,211647,-3.48,23.43,70.09,90,78,2.01,1580179883
107,althofen,AT,7871640,46.88,14.47,37.0,86,40,1.12,1580179883
108,tual,ID,1623197,-5.67,132.75,84.38,75,69,15.79,1580179884
109,huainan,CN,1807681,32.63,117.0,41.38,62,16,7.96,1580179884
110,hamilton,US,4513583,39.18,-84.53,34.0,82,90,3.36,1580179885
111,sivas,TR,300617,39.79,37.0,24.8,73,75,12.75,1580179886
112,saldanha,ZA,3361934,-33.01,17.94,57.2,82,43,5.82,1580179886
113,kjollefjord,NO,779261,70.95,27.35,11.97,83,60,9.64,1580179887
114,port keats,AU,2063039,-14.25,129.55,90.77,66,100,11.61,1580179887
115,bambous virieux,MU,1106677,-20.34,57.76,73.0,88,75,3.36,1580179888
116,los llanos de aridane,ES,2514651,28.66,-17.92,64.4,63,90,5.82,1580179888
117,xining,CN,1788852,36.62,101.77,21.11,32,29,4.32,1580179427
118,ilulissat,GL,3423146,69.22,-51.1,6.8,65,100,4.7,1580179890
119,vardo,NO,777019,70.37,31.11,21.79,66,100,8.23,1580179380
120,bilibino,RU,2126682,68.05,166.44,0.84,85,100,2.64,1580179891
121,kaitangata,NZ,2208248,-46.28,169.85,57.25,76,44,8.9,1580179891
122,parabel,RU,1495586,58.7,81.48,8.11,91,100,10.16,1580179892
123,paamiut,GL,3421193,61.99,-49.67,11.95,64,0,17.98,1580179893
124,torbay,CA,6167817,47.67,-52.73,35.01,91,90,10.29,1580179299
125,bethel,US,5282297,41.37,-73.41,41.0,74,90,13.87,1580179894
126,atyrau,KZ,610529,47.12,51.88,32.0,91,75,4.47,1580179675
127,itoman,JP,1861280,26.12,127.67,66.2,55,75,13.87,1580179895
128,port macquarie,AU,2152659,-31.43,152.92,97.0,49,0,13.87,1580179897
129,nisia floresta,BR,3393922,-6.09,-35.21,82.4,78,40,8.05,1580179897
130,tura,IN,1254046,25.52,90.22,64.58,58,0,6.42,1580179505
131,puerto ayora,EC,3652764,-0.74,-90.35,73.99,18,81,1.99,1580179899
132,morant bay,JM,3489440,17.88,-76.41,78.8,74,40,3.36,1580179900
133,faanui,PF,4034551,-16.48,-151.75,83.16,73,66,10.45,1580179900
134,pacific grove,US,5380437,36.62,-121.92,55.4,87,1,4.7,1580179901
135,general roca,AR,3855065,-39.03,-67.58,73.4,53,0,6.22,1580179902
136,thompson,CA,6165406,55.74,-97.86,10.4,92,90,2.24,1580179603
137,makakilo city,US,5850554,21.35,-158.09,82.4,57,1,8.05,1580179903
138,muravlenko,RU,1540711,63.79,74.52,0.19,96,100,17.2,1580179904
139,bida,NG,2347209,9.08,6.02,68.68,18,0,3.4,1580179904
140,cayenne,GF,3382160,4.93,-52.33,78.8,88,75,5.23,1580179905
141,lata,PT,2738381,40.16,-8.33,60.01,93,75,9.17,1580179545
142,college,US,5859699,64.86,-147.8,-20.99,74,90,3.02,1580179453
143,maykopskoye,RU,528289,45.39,40.77,38.98,76,100,6.2,1580179906
144,zyryanka,RU,2119283,65.75,150.85,-22.27,92,97,3.47,1580179907
145,yura,PE,3925467,-16.25,-71.68,57.2,93,75,3.36,1580179908
146,wanaka,NZ,2184707,-44.7,169.15,66.47,42,100,7.9,1580179908
147,kapaa,US,5848280,22.08,-159.32,80.6,65,40,8.05,1580179909
148,pemangkat,ID,1631637,1.17,108.97,85.17,72,100,5.3,1580179909
149,neiafu,TO,4032420,-18.65,-173.98,86.0,74,40,4.7,1580179910
150,mahebourg,MU,934322,-20.41,57.7,73.0,88,75,3.36,1580179910
151,samarai,PG,2132606,-10.62,150.67,83.66,77,93,6.35,1580179491
152,aswan,EG,359792,24.09,32.91,53.11,63,33,6.89,1580179912
153,nardaran,AZ,585388,40.56,50.01,42.8,75,0,6.93,1580179912
154,awallan,PH,1729909,17.92,121.91,80.29,60,3,2.71,1580179913
155,alyangula,AU,2079582,-13.85,136.42,91.4,66,99,14.99,1580179913
156,mogadishu,SO,53654,2.04,45.34,80.38,79,97,24.29,1580179887
157,jamestown,US,5122534,42.1,-79.24,33.01,92,90,9.17,1580179618
158,puerto narino,CO,3671387,-3.77,-70.38,80.6,94,75,2.24,1580179916
159,darhan,MN,2031964,49.49,105.92,3.31,84,0,3.24,1580179916
160,isilkul,RU,1505438,54.91,71.27,2.26,97,94,7.0,1580179418
161,tebingtinggi,ID,1213500,3.33,99.16,86.0,74,20,6.93,1580179918
162,surt,LY,2210554,31.21,16.59,53.37,86,0,4.76,1580179379
163,sur,OM,286245,22.57,59.53,62.64,59,0,9.91,1580179919
164,comodoro rivadavia,AR,3860443,-45.87,-67.5,77.0,38,100,32.21,1580179920
165,vila velha,BR,3445026,-20.33,-40.29,75.2,94,90,3.36,1580179800
166,dingle,PH,1714733,11.0,122.67,83.05,72,60,7.18,1580179449
167,esperance,AU,2071860,-33.87,121.9,104.0,16,0,24.16,1580179922
168,hofn,IS,2630299,64.25,-15.21,38.52,69,0,9.15,1580179922
169,tieling,CN,2034439,42.29,123.84,24.98,83,100,6.53,1580179923
170,golden,US,5423294,39.76,-105.22,37.4,91,40,5.44,1580179414
171,sompeta,IN,1255816,18.93,84.6,73.4,73,4,4.83,1580179571
172,lebu,CL,3883457,-37.62,-73.65,59.47,86,88,6.62,1580179924
173,marzuq,YE,72181,14.4,46.47,47.5,37,0,2.93,1580179925
174,kruisfontein,ZA,986717,-34.0,24.73,55.47,85,45,4.59,1580179629
175,yellowknife,CA,6185377,62.46,-114.35,15.8,92,90,6.93,1580179927
176,nikolsk,RU,521776,53.72,46.07,9.64,87,100,4.43,1580179927
177,margate,GB,2643044,51.38,1.39,43.0,93,75,11.41,1580179928
178,komsomolskiy,UZ,1513491,40.43,71.72,35.6,86,40,2.24,1580179929
179,rotifunk,SL,2404254,8.23,-12.68,71.28,97,100,1.1,1580179929
180,iroquois falls,CA,5984000,48.77,-80.68,19.4,100,90,9.17,1580179930
181,cape town,ZA,3369157,-33.93,18.42,61.0,93,28,6.93,1580179930
182,viedma,AR,3832899,-40.81,-63.0,69.6,33,84,23.04,1580179931
183,kieta,PG,2094027,-6.22,155.63,84.94,71,15,5.95,1580179456
184,sao jose da coroa grande,BR,3388456,-8.9,-35.15,80.78,80,37,10.8,1580179933
185,rockford,US,4907959,42.27,-89.09,32.0,86,90,4.7,1580179891
186,mount pleasant,US,4588165,32.79,-79.86,52.0,87,1,5.82,1580179934
187,soe,ID,1626703,-9.86,124.28,88.57,55,100,4.7,1580179531
188,sitka,US,5557293,57.05,-135.33,37.4,74,75,11.41,1580179935
189,avarua,CK,4035715,-21.21,-159.78,78.8,88,100,11.41,1580179935
190,mar del plata,AR,3430863,-38.0,-57.56,62.01,71,0,3.36,1580179936
191,sumbe,AO,3346015,-11.21,13.84,75.34,77,99,2.35,1580179936
192,safut,JO,250441,32.03,35.83,45.0,75,100,3.76,1580179937
193,tezu,IN,1254709,27.92,96.17,59.99,38,0,2.44,1580179481
194,mbandaka,CD,2312895,0.05,18.26,69.26,49,36,1.36,1580179938
195,victoria,HK,1819729,22.29,114.16,55.0,57,40,10.29,1580179908
196,conway,US,4106458,35.09,-92.44,48.99,87,1,4.7,1580179696
197,san policarpo,PH,1688696,12.18,125.51,81.86,71,21,4.65,1580179942
198,provideniya,RU,4031574,64.38,-173.3,-2.2,77,0,11.18,1580179942
199,sovetskaya gavan,RU,2121052,48.97,140.29,13.84,77,0,7.81,1580179943
200,rawson,AR,3839307,-43.3,-65.1,72.91,41,68,19.01,1580179937
201,buin,CL,3897774,-33.73,-70.75,75.2,33,0,14.99,1580179944
202,severnyy,RU,496358,50.68,36.55,30.2,86,75,2.24,1580179945
203,camacha,PT,2270385,33.08,-16.33,60.8,82,20,1.12,1580179394
204,seoul,KR,1835848,37.57,126.98,48.2,52,90,6.93,1580179862
205,ouallam,NE,2440371,14.32,2.09,68.45,7,100,11.79,1580179948
206,progreso,MX,3521108,21.28,-89.67,75.2,83,40,6.93,1580179948
207,iqaluit,CA,5983720,63.75,-68.51,-2.0,77,90,3.36,1580179949
208,shuangcheng,CN,2034834,45.35,126.28,5.0,77,100,4.47,1580179949
209,maceio,BR,3395981,-9.67,-35.74,77.0,94,20,5.82,1580179838
210,oyama,JP,1853483,36.3,139.8,45.0,93,75,4.7,1580179951
211,palu,ID,1633034,-0.89,119.87,86.54,57,24,2.75,1580179432
212,shingu,JP,1847947,33.73,135.98,62.6,63,75,9.17,1580179556
213,srednekolymsk,RU,2121025,67.45,153.68,-23.24,92,100,6.33,1580179954
214,grootfontein,NA,3357114,-19.57,18.12,67.46,68,60,3.49,1580179955
215,luderitz,NA,3355672,-26.65,15.16,60.8,63,0,14.99,1580179955
216,rosetta,EG,350203,31.4,30.42,50.0,93,40,3.36,1580179956
217,esna,EG,355449,25.29,32.55,48.2,61,39,5.06,1580179956
218,leningradskiy,RU,2123814,69.38,178.42,-12.32,96,13,10.45,1580179132
219,poum,NC,2138555,-20.23,164.02,79.74,79,100,19.1,1580179502
220,tessalit,ML,2449893,20.2,1.01,70.02,10,66,8.84,1580179362
221,aloleng,PH,1731298,16.13,119.78,82.96,54,66,5.82,1580179959
222,peniche,PT,2264923,39.36,-9.38,59.0,100,75,6.93,1580179960
223,nikolskoye,RU,546105,59.7,30.79,24.8,92,90,4.47,1580179960
224,fare,PF,4034496,-16.7,-151.02,83.3,74,21,10.42,1580179961
225,severo-kurilsk,RU,2121385,50.68,156.12,28.47,88,100,7.25,1580179962
226,katsuura,JP,2112309,35.13,140.3,44.6,93,75,23.04,1580179962
227,jieshi,CN,1805857,22.81,115.83,51.01,68,100,4.0,1580179963
228,bengkulu,ID,1649150,-3.8,102.27,88.32,56,78,0.6,1580179746
229,touros,BR,3386213,-5.2,-35.46,78.8,88,40,5.82,1580179374
230,las margaritas,MX,3524744,16.32,-91.98,58.15,98,45,1.07,1580179965
231,megion,RU,1499053,61.03,76.11,3.2,77,40,8.95,1580179965
232,stornoway,GB,2636790,58.21,-6.39,34.0,73,58,3.36,1580179967
233,ulaanbaatar,MN,2028462,47.91,106.88,1.4,64,0,3.56,1580179967
234,tigre,AR,3427761,-34.43,-58.58,70.0,60,20,10.29,1580179968
235,namibe,AO,3347019,-15.2,12.15,76.21,80,100,5.73,1580179525
236,baie-saint-paul,CA,6690232,47.44,-70.5,27.0,94,100,3.49,1580179969
237,vilyuysk,RU,2013392,63.76,121.62,-29.52,95,0,2.57,1580179969
238,awjilah,LY,88533,29.11,21.29,56.39,27,26,5.39,1580179970
239,port hawkesbury,CA,6111867,45.62,-61.35,36.0,96,90,3.36,1580179971
240,san quintin,MX,3984997,30.48,-115.95,37.0,20,0,10.0,1580179971
241,beringovskiy,RU,2126710,63.05,179.32,7.74,87,51,10.49,1580179518
242,adrar,MR,2381972,20.5,-10.07,68.43,27,0,11.74,1580179972
243,oktyabrskoye,RU,515805,43.06,44.74,30.88,59,100,1.63,1580179973
244,mount gambier,AU,2156643,-37.83,140.77,73.4,46,82,11.41,1580179973
245,taywarah,AF,1122464,33.35,64.42,0.54,77,0,7.58,1580179974
246,lagoa,PT,3372964,39.05,-27.98,63.46,95,100,11.9,1580179441
247,ruteng,ID,1629380,-8.61,120.47,86.32,53,27,4.23,1580179975
248,hobyo,SO,57000,5.35,48.53,76.6,75,100,19.69,1580179976
249,ramsar,IR,9874,36.92,50.64,37.4,93,0,5.35,1580179976
250,mount isa,AU,2065594,-20.73,139.5,84.2,66,90,11.41,1580179977
251,klaksvik,FO,2618795,62.23,-6.59,33.8,86,63,2.24,1580179977
252,bosaso,SO,64013,11.28,49.18,75.51,64,33,26.19,1580179448
253,eureka,US,5563397,40.8,-124.16,55.4,82,90,5.82,1580179978
254,beloha,MG,1067565,-25.17,45.05,70.63,94,0,4.36,1580179979
255,jiblah,YE,74185,13.92,44.15,58.26,84,29,0.85,1580179980
256,san juan,AR,3837213,-31.54,-68.54,82.71,37,100,18.9,1580179981
257,atbasar,KZ,1526038,51.8,68.33,17.2,95,100,7.83,1580179981
258,atuona,PF,4020109,-9.8,-139.03,81.72,75,80,11.54,1580179982
259,kijang,KR,1842966,35.24,129.21,48.2,70,75,11.41,1580179982
260,skjervoy,NO,777682,70.03,20.97,16.52,79,1,30.58,1580179983
261,ponta do sol,PT,2264557,32.67,-17.1,60.8,72,20,5.82,1580179983
262,husavik,IS,2629833,66.04,-17.34,14.0,78,100,5.82,1580179984
263,kloulklubed,PW,7671223,7.04,134.26,86.0,66,75,8.05,1580179395
264,mitsamiouli,KM,921786,-11.38,43.28,82.6,69,10,5.48,1580179985
265,maputo,MZ,1040652,-25.97,32.59,72.0,76,84,8.01,1580179463
266,vao,NC,2137773,-22.67,167.48,77.68,81,68,16.04,1580179987
267,carnarvon,AU,2074865,-24.87,113.63,80.6,100,0,16.11,1580179987
268,kovdor,RU,543508,67.57,30.48,-7.37,97,38,2.21,1580179988
269,valls,ES,3106492,41.29,1.25,55.0,66,100,4.7,1580179989
270,jardim,BR,3460087,-21.48,-56.14,75.2,65,0,4.47,1580179989
271,creel,MX,4012593,27.75,-107.63,39.15,91,0,5.17,1580179990
272,fukue,JP,1863997,32.69,128.84,53.6,81,75,12.75,1580179990
273,lincoln,US,5072006,40.8,-96.67,33.01,96,90,8.05,1580179913
274,fukuma,JP,1863978,33.77,130.47,57.99,76,75,17.22,1580179991
275,kapoeta,SS,372884,4.77,33.59,79.25,63,92,4.43,1580179992
276,xinqing,CN,2033667,48.23,129.5,11.91,85,37,5.53,1580179993
277,letnica,PL,3080165,51.9,15.33,43.0,43,100,11.34,1580179993
278,leh,IN,1264976,34.17,77.58,-7.6,67,95,4.36,1580179878
279,denpasar,ID,1645528,-8.65,115.22,89.6,75,20,4.7,1580179994
280,cherskiy,RU,2126199,68.75,161.3,-12.95,92,100,7.83,1580179995
281,gerash,IR,133595,27.67,54.14,39.2,93,0,6.93,1580179995
282,buala,SB,2109528,-8.14,159.59,83.68,77,56,8.79,1580179996
283,clyde river,CA,5924351,70.47,-68.59,-22.0,67,1,18.34,1580179997
284,port augusta,AU,2063056,-32.5,137.77,96.01,57,0,12.75,1580179997
285,quthing,LS,932183,-30.4,27.7,50.23,43,30,0.47,1580179998
286,yerbogachen,RU,2012956,61.28,108.01,4.15,90,100,7.54,1580179998
287,kenner,US,4329753,29.99,-90.24,57.2,87,40,5.82,1580180001
288,mayumba,GA,2399001,-3.43,10.66,82.71,79,98,10.87,1580180002
289,arlit,NE,2447513,18.74,7.39,64.81,10,8,5.55,1580180002
290,ahipara,NZ,2194098,-35.17,173.17,81.0,71,0,1.99,1580179722
291,luanda,AO,2240449,-8.84,13.23,80.6,83,75,4.7,1580179729
292,bontang,ID,1648186,0.13,117.5,82.4,84,57,12.66,1580180004
293,kahului,US,5847411,20.89,-156.47,82.4,51,20,16.11,1580179869
294,portland,US,5746545,45.52,-122.68,52.0,93,90,4.7,1580179903
295,ulladulla,AU,2145554,-35.35,150.47,91.99,62,75,8.05,1580180006
296,bingol,TR,321082,38.88,40.49,25.9,52,100,2.64,1580180007
297,dayong,CN,1789289,25.02,118.29,57.2,62,40,4.47,1580180007
298,myaundzha,RU,2123100,63.05,147.19,-15.34,96,97,3.06,1580180008
299,znamenskoye,RU,1485020,57.13,73.83,1.6,96,100,4.16,1580180008
300,ballarat,AU,2177091,-37.57,143.85,80.01,40,99,5.79,1580180009
301,trapani,IT,2522875,37.83,12.67,55.99,82,20,10.29,1580180010
302,medicine hat,CA,6071618,50.05,-110.67,32.0,78,5,5.82,1580179895
303,campo verde,BR,3467673,-20.42,-54.07,75.2,88,0,3.36,1580180011
304,grand gaube,MU,934479,-20.01,57.66,73.0,88,75,3.36,1580180011
305,chumikan,RU,2025256,54.72,135.31,10.49,80,92,4.0,1580179457
306,altay,CN,1529651,47.87,88.12,13.62,82,100,1.86,1580180012
307,hanzhong,CN,1808857,33.07,107.03,40.62,53,64,1.63,1580180013
308,baghdad,IQ,98182,33.34,44.4,37.4,100,62,2.24,1580179903
309,purbalingga,ID,1630366,-7.39,109.36,90.1,62,51,1.88,1580180014
310,yenagoa,NG,2318123,4.92,6.26,74.37,89,33,3.13,1580180015
311,ribeira brava,PT,2263905,32.65,-17.07,60.8,72,20,5.82,1580180015
312,aksarka,RU,1512019,66.56,67.8,-9.35,96,100,14.05,1580180016
313,mugur-aksy,RU,1498283,50.35,90.5,5.5,68,100,5.93,1580180016
314,tall kayf,TR,303750,37.08,41.07,35.6,74,100,6.93,1580180017
315,kasterlee,BE,2794664,51.24,4.97,45.0,93,75,9.17,1580180017
316,yozgat,TR,296560,39.58,35.33,35.46,63,100,6.2,1580180018
317,vila franca do campo,PT,3372472,37.72,-25.43,64.4,93,75,20.8,1580180019
318,codrington,AU,2171099,-38.27,141.97,62.89,82,17,17.02,1580179509
319,cabra,ES,2520645,37.47,-4.44,51.01,93,90,1.12,1580180020
320,canete,CL,3896924,-37.8,-73.4,59.79,87,0,6.71,1580180021
321,umm kaddadah,SD,364933,13.6,26.69,55.2,26,51,11.41,1580180021
322,moron,AR,3430545,-34.65,-58.62,70.0,63,0,6.93,1580179429
323,oranjemund,NA,3354071,-28.55,16.43,60.15,86,48,9.06,1580180023
324,griffith,US,4920986,41.53,-87.42,34.0,92,90,3.58,1580180023
325,daitari,IN,1273673,21.1,85.75,69.71,55,0,1.23,1580180024
326,fairlie,GB,2649738,55.76,-4.86,36.0,97,90,2.24,1580180024
327,fort nelson,CA,5955902,58.81,-122.7,8.6,84,75,2.24,1580180025
328,qinhuangdao,CN,1797595,39.93,119.59,32.7,89,100,2.82,1580180025
329,cafarnaum,BR,3468314,-11.69,-41.47,68.74,92,94,1.79,1580180026
330,naron,ES,3115739,43.52,-8.15,54.0,93,75,4.7,1580180027
331,ocampo,MX,3994535,21.65,-101.5,52.18,35,0,8.08,1580180027
332,the valley,AI,3573374,18.22,-63.06,78.01,88,75,2.24,1580180028
333,honiara,SB,2108502,-9.43,159.95,89.6,70,40,8.05,1580180028
334,newport,GB,2641598,51.59,-3.0,39.99,93,67,11.41,1580180029
335,dunedin,NZ,2191562,-45.87,170.5,66.0,73,71,14.0,1580179811
336,batemans bay,AU,2176639,-35.72,150.18,91.99,87,100,8.01,1580180030
337,laguna,US,5364271,38.42,-121.42,57.99,76,1,5.82,1580179504
338,araouane,ML,2460954,18.9,-3.53,71.08,11,21,8.75,1580180032
339,airai,TL,1651810,-8.93,125.41,83.08,61,100,5.12,1580180033
340,birao,CF,240210,10.28,22.79,58.08,19,0,9.17,1580180033
341,ughelli,NG,2320829,5.49,6.01,73.2,91,64,2.55,1580180034
342,manaquiri,BR,3663524,-3.32,-60.35,80.6,88,40,3.36,1580180034
343,kvitok,RU,1501036,56.07,98.48,6.01,93,0,3.58,1580180035
344,harper,LR,2276492,4.38,-7.72,76.64,90,16,1.52,1580179448
345,rocha,UY,3440777,-34.48,-54.33,51.66,83,0,1.61,1580180036
346,cabo rojo,PR,4562996,18.09,-67.15,78.01,77,0,4.45,1580180037
347,tahe,CN,2034615,52.33,124.73,9.36,83,0,4.61,1580180037
348,milkovo,RU,2123278,54.72,158.62,21.74,90,100,0.78,1580180038
349,guadalajara,MX,4005539,20.67,-103.33,60.8,36,5,4.7,1580180038
350,sinnamary,GF,3380290,5.38,-52.95,79.99,81,98,15.14,1580180039
351,aliwal north,ZA,1023309,-30.69,26.71,55.49,37,74,1.81,1580180039
352,bilma,NE,2446796,18.69,12.92,58.37,12,0,4.25,1580180040
353,pangnirtung,CA,6096551,66.15,-65.71,-18.51,59,94,3.0,1580180041
354,muros,ES,3115824,42.78,-9.06,55.99,87,75,5.82,1580180041
355,gandhidham,IN,1271717,23.08,70.13,63.73,66,0,7.7,1580180042
356,les escaldes,AD,3040051,42.51,1.53,39.0,69,100,1.01,1580180043
357,conceicao do araguaia,BR,3401845,-8.26,-49.26,71.76,97,100,2.17,1580179923
358,taltal,CL,3870243,-25.4,-70.48,64.85,89,0,2.98,1580180044
359,nabire,ID,1634614,-3.37,135.48,88.93,59,100,5.35,1580179497
360,ilhabela,BR,3461425,-23.78,-45.36,78.21,75,0,11.86,1580180045
361,hede,CN,1808744,33.77,120.25,40.93,81,54,12.06,1580180046
362,fairbanks,US,5861897,64.84,-147.72,-20.0,74,90,2.98,1580180046
363,mehamn,NO,778707,71.04,27.85,11.91,79,62,8.05,1580180047
364,san joaquin,VE,3628267,10.26,-67.79,75.38,90,45,5.19,1580180047
365,diffa,NE,2445704,13.32,12.61,60.19,15,5,10.09,1580180048
366,liverpool,GB,2644210,53.41,-2.98,39.99,93,40,16.11,1580179802
367,waingapu,ID,1622318,-9.66,120.26,84.22,73,83,2.93,1580180049
368,acarau,BR,3408368,-2.89,-40.12,76.59,90,100,3.44,1580180050
369,mandera,KE,187896,3.94,41.87,81.19,57,99,11.12,1580180050
370,diego de almagro,CL,3892454,-26.37,-70.05,63.84,73,0,0.56,1580180051
371,emerald,AU,2167426,-23.53,148.17,84.99,62,75,8.05,1580180052
372,asau,RO,686090,46.43,26.4,36.0,86,47,3.36,1580180052
373,odweyne,SO,53372,9.41,45.06,62.67,59,6,14.25,1580180053
374,tsiroanomandidy,MG,1054463,-18.77,46.03,67.35,97,0,1.54,1580179566
375,livramento,BR,3663517,-3.03,-60.18,80.6,94,75,2.98,1580180054
376,cabo san lucas,MX,3985710,22.89,-109.91,69.8,72,20,6.93,1580179848
377,marysville,US,5802570,48.05,-122.18,46.4,93,90,5.82,1580180056
378,lovington,US,5477090,32.94,-103.35,55.99,37,90,16.11,1580180057
379,merauke,ID,2082539,-8.47,140.33,91.18,59,98,11.32,1580180057
380,ambon,ID,1651531,-3.7,128.18,93.2,52,40,6.93,1580179518
381,pringsewu,ID,1630639,-5.36,104.97,84.06,71,54,2.91,1580179458
382,cotonou,BJ,2394819,6.37,2.42,78.8,88,20,5.82,1580180059
383,gorin,RU,2023943,51.2,136.67,9.66,85,18,2.42,1580180060
384,iwanai,JP,2129868,42.97,140.51,32.22,87,92,5.84,1580180062
385,torata,PE,3927158,-17.08,-70.84,60.53,86,100,1.95,1580180063
386,nouadhibou,MR,2377457,20.93,-17.03,62.6,72,0,17.22,1580179464
387,novoorsk,RU,518418,51.38,58.98,14.0,72,90,20.13,1580180064
388,naze,JP,1855540,28.37,129.48,64.4,67,75,10.29,1580180064
389,carutapera,BR,3402648,-1.2,-46.02,82.26,80,100,17.16,1580180065
390,kutum,SD,371745,14.2,24.67,44.31,30,99,3.11,1580180065
391,sao filipe,CV,3374210,14.9,-24.5,74.19,55,73,17.29,1580180066
392,tottori,JP,1849892,35.5,134.23,51.8,100,75,4.7,1580180067
393,jimma,ET,333772,7.67,36.83,61.56,84,100,0.96,1580180067
394,sawakin,SD,367544,19.11,37.33,72.97,75,96,14.52,1580180068
395,padang,ID,1633419,-0.95,100.35,79.95,72,100,1.52,1580179570
396,puerto colombia,CO,3671497,10.99,-74.95,80.6,78,0,9.17,1580180069
397,port lincoln,AU,2063036,-34.73,135.87,73.8,49,76,8.23,1580180069
398,teya,RU,1489656,60.38,92.63,18.72,94,100,7.85,1580180070
399,ampanihy,MG,1078553,-24.7,44.75,71.85,93,0,4.43,1580180071
400,isangel,VU,2136825,-19.55,169.27,87.8,66,20,9.17,1580180071
401,lusambo,CD,210379,-4.97,23.45,71.6,91,100,2.01,1580180072
402,nanortalik,GL,3421765,60.14,-45.24,20.03,71,0,21.32,1580180072
403,thaba-tseka,LS,1106835,-29.52,28.61,40.28,35,27,3.94,1580180073
404,noumea,NC,2139521,-22.28,166.46,88.0,55,0,10.29,1580180073
405,palencia,ES,3114530,42.42,-4.5,48.99,92,100,17.0,1580180074
406,soyo,AO,2236967,-6.13,12.37,79.27,85,75,5.17,1580179476
407,ribeira grande,PT,3372707,38.52,-28.7,64.4,93,75,14.99,1580180075
408,avera,US,4231997,33.19,-82.53,50.0,87,1,6.93,1580180076
409,guymon,US,5515743,36.68,-101.48,44.6,80,75,14.99,1580180076
410,estevan,CA,5949568,49.13,-102.98,30.2,100,90,5.82,1580180077
411,lumding,IN,7302859,25.75,93.17,57.11,92,96,1.86,1580180078
412,poyarkovo,RU,2017705,49.6,128.68,-5.06,95,77,7.34,1580180078
413,santa vitoria do palmar,BR,3449747,-33.52,-53.37,60.3,76,0,4.99,1580180079
414,salalah,OM,286621,17.02,54.09,62.6,29,0,14.99,1580180046
415,charters towers,AU,2171722,-20.1,146.27,75.06,86,100,8.99,1580180080
416,ayan,RU,2027316,56.45,138.17,15.51,71,0,8.55,1580180080
417,inirida,CO,3671450,3.87,-67.92,77.23,83,64,1.77,1580180082
418,sioux lookout,CA,6148373,50.1,-91.92,15.8,85,90,4.7,1580179325
419,revda,RU,502011,56.8,59.93,-5.8,83,100,11.18,1580180084
420,bayanday,RU,2027004,53.07,105.51,13.39,88,0,5.61,1580180084
421,tuatapere,NZ,2180815,-46.13,167.68,68.0,54,100,7.0,1580180085
422,khartoum,SD,379252,15.55,32.53,60.8,29,60,11.41,1580180085
423,zhuanghe,CN,1784055,39.7,122.99,46.0,69,100,1.01,1580180086
424,saint-pierre,RE,935214,-21.34,55.48,69.8,64,1,11.41,1580179798
425,ransang,PH,1691872,8.96,117.58,80.85,78,1,6.8,1580180087
426,marsabit,KE,187585,2.33,37.99,73.65,76,85,19.48,1580180088
427,la ronge,CA,6050066,55.1,-105.28,12.2,92,90,2.24,1580180088
428,talnakh,RU,1490256,69.49,88.4,8.6,78,75,22.37,1580180089
429,divnogorsk,RU,1507379,55.96,92.36,12.2,78,100,2.24,1580180089
430,mareeba,AU,2158767,-17.0,145.43,84.99,79,75,8.05,1580180090
431,mahon,ES,2514301,39.89,4.27,55.4,82,95,13.87,1580180091
432,hammerfest,NO,779683,70.66,23.68,10.4,72,13,20.8,1580180091
433,chegdomyn,RU,2025579,51.12,133.02,1.74,88,31,2.01,1580180092
434,fuerte olimpo,PY,3438102,-21.04,-57.87,80.58,49,1,3.09,1580180093
435,sohbatpur,PK,1164660,28.52,68.54,54.64,58,0,0.29,1580180093
436,nantucket,US,4944903,41.28,-70.1,39.99,69,1,8.05,1580180094
437,male,MV,1282027,4.17,73.51,82.4,78,40,9.17,1580179941
438,taungdwingyi,MM,1294041,20.02,95.55,67.75,45,0,1.23,1580180096
439,vestmanna,FO,2610343,62.16,-7.17,33.8,86,72,2.24,1580180096
440,verkhnyaya toyma,RU,474470,62.23,45.0,-7.28,99,100,2.19,1580180097
441,trinidad,BO,3902377,-14.83,-64.9,79.97,82,96,2.13,1580180097
442,te anau,NZ,2181625,-45.42,167.72,64.81,58,100,5.97,1580180098
443,boyuibe,BO,3923015,-20.42,-63.28,65.01,82,73,2.86,1580180098
444,kazachinskoye,RU,1504075,57.7,93.28,23.14,81,100,9.04,1580180099
445,flinders,AU,6255012,-34.58,150.86,90.0,62,75,8.05,1580180100
446,coromandel,BR,3465487,-18.47,-47.2,66.78,94,97,0.69,1580180100
447,caravelas,BR,3466980,-17.71,-39.25,80.28,88,100,14.12,1580180101
448,turkistan,KZ,1524787,43.0,68.0,26.85,82,0,10.09,1580180101
449,jequie,BR,3459943,-13.86,-40.08,69.76,99,99,1.54,1580180102
450,merrydale,US,4333161,30.5,-91.11,55.4,76,90,3.29,1580180102
451,jablah,SY,169304,35.36,35.93,46.4,87,100,6.93,1580180103
452,urumqi,CN,1529102,43.8,87.6,14.0,92,19,8.95,1580180022
453,weston,US,4178003,26.1,-80.4,69.8,68,40,3.65,1580180104
454,bereda,ES,3105522,43.27,-7.54,54.0,93,75,4.7,1580180105
455,ordynskoye,RU,1496100,54.37,81.9,13.21,93,46,11.39,1580180105
456,shimoda,JP,1852357,34.67,138.95,50.0,93,75,31.09,1580180106
457,smithers,CA,6149996,54.78,-127.17,32.0,93,90,3.36,1580180107
458,lyuban,BY,625721,52.8,28.0,32.18,78,80,5.19,1580180107
459,satkhira,BD,1185111,22.72,89.1,57.2,93,40,4.41,1580180108
460,khyriv,UA,705914,49.53,22.85,28.99,85,0,9.44,1580180108
461,aksu,CN,1529660,41.12,80.26,24.49,61,97,1.1,1580180109
462,ust-kan,RU,1488190,50.93,84.76,17.53,89,100,11.74,1580180109
463,taoudenni,ML,2450173,22.68,-3.98,66.97,22,0,10.09,1580180110
464,bima,ID,1648759,-8.47,118.72,86.76,69,24,3.69,1580180110
465,uyuni,BO,3901903,-20.46,-66.83,58.01,39,35,5.32,1580180111
466,bela vista,BR,3470177,-22.11,-56.52,74.88,70,2,1.66,1580180112
467,gambela,ET,337405,8.25,34.58,70.9,28,2,2.84,1580180112
468,ugoofaaru,MV,1337619,5.67,73.0,81.12,70,13,8.46,1580180113
469,acapulco,MX,3533462,16.86,-99.89,80.6,74,20,4.7,1580179515
470,moyo,UG,229059,3.66,31.72,76.44,38,100,2.68,1580180114
471,corinto,GR,259289,37.94,22.96,54.0,87,20,10.83,1580179861
472,shiyan,CN,1794903,32.65,110.78,54.0,52,0,3.49,1580180116
473,nemuro,JP,2128975,43.32,145.57,24.8,53,0,5.82,1580180116
474,berlevag,NO,780687,70.86,29.09,24.08,74,76,13.65,1580180117
475,orsk,RU,514734,51.2,58.57,14.0,72,90,20.13,1580180117
476,harwich,GB,2647383,51.94,1.28,43.0,93,75,11.41,1580180118
477,lasa,IT,3175096,46.62,10.7,35.01,92,90,4.7,1580180119
478,aqtobe,KZ,610611,50.28,57.21,8.6,84,20,26.84,1580180120
479,puerto del rosario,ES,2512186,28.5,-13.86,62.6,82,40,11.41,1580180120
480,ejido,VE,3644417,8.55,-71.24,47.48,94,58,1.45,1580180121
481,cartagena del chaira,CO,3792382,1.33,-74.84,77.14,75,100,2.3,1580180121
482,nioro,GM,2412408,13.35,-15.75,71.55,11,0,0.81,1580180122
483,ilebo,CD,215976,-4.32,20.58,73.51,62,96,1.66,1580180123
484,kayes,ML,2455517,14.0,-11.0,74.64,9,100,4.47,1580180124
485,porecatu,BR,3452992,-22.76,-51.38,80.6,44,4,3.36,1580180125
486,zholymbet,KZ,1516527,51.74,71.71,17.6,92,100,17.25,1580180125
487,sekoma,BW,933102,-24.4,23.88,67.01,24,0,3.22,1580180126
488,bozeman,US,5641727,45.68,-111.04,33.8,68,40,10.29,1580179892
489,rio grande,BR,3451138,-32.03,-52.1,63.0,90,3,14.45,1580180127
490,pochutla,MX,3517970,15.74,-96.47,80.6,74,20,10.29,1580180127
491,domodossola,IT,3177532,46.12,8.29,42.8,100,75,2.17,1580180128
492,broome,US,5110365,42.25,-75.83,33.01,92,90,9.17,1580180129
493,imbituba,BR,3461370,-28.24,-48.67,75.2,88,94,4.7,1580179864
494,haines junction,CA,5969025,60.75,-137.51,9.05,93,68,7.45,1580180130
495,tinoto,PH,1681782,5.89,125.07,87.8,66,20,4.7,1580180130
496,nuuk,GL,3421319,64.18,-51.72,12.2,78,90,2.24,1580180131
497,collie,AU,2074113,-33.37,116.15,93.99,19,0,6.22,1580180132
498,joshimath,IN,1268814,30.57,79.57,31.06,54,97,4.07,1580180132
499,roma,US,5134295,43.21,-75.46,33.8,96,90,6.93,1580180105
500,calama,CL,3897347,-22.47,-68.93,62.6,55,16,12.75,1580180134
501,tigil,RU,2120612,57.8,158.67,21.4,77,26,6.89,1580180135
502,half moon bay,US,5354943,37.46,-122.43,55.99,93,90,5.82,1580179844
503,lewistown,US,5197850,40.6,-77.57,36.0,80,90,9.17,1580180137
504,kotido,UG,230617,2.98,34.13,71.78,71,100,5.77,1580180137
505,eyl,SO,60019,7.98,49.82,76.37,72,89,26.6,1580180139
506,petropavlovsk-kamchatskiy,RU,2122104,53.05,158.65,37.4,47,100,7.2,1580180139
507,puerto maldonado,PE,3931470,-12.6,-69.18,75.88,94,100,2.8,1580180140
508,sao miguel do araguaia,BR,3448455,-13.28,-50.16,70.88,98,100,4.72,1580180140
509,tazovskiy,RU,1489853,67.47,78.7,2.43,95,100,12.41,1580179974
510,lavrentiya,RU,4031637,65.58,-171.0,-12.06,72,0,2.71,1580180142
511,kalianget,ID,1641977,-7.05,113.93,86.76,66,6,4.09,1580180143
512,yurty,RU,1485680,56.05,97.63,10.2,87,73,3.6,1580180144
513,merrill,US,5262680,45.18,-89.68,28.99,79,90,4.7,1580180144
514,lososina,RU,2123688,49.0,140.31,13.84,77,0,7.81,1580180145
515,eufaula,US,4060954,31.89,-85.15,46.4,100,1,4.12,1580180145
516,guaruja,BR,3461789,-23.99,-46.26,77.0,29,67,4.7,1580180146
517,kozmodemyansk,RU,543018,56.34,46.57,3.2,91,40,4.47,1580180147
518,ciudad bolivar,VE,3645532,8.12,-63.55,81.18,67,0,12.97,1580180147
519,casa grande,US,5288636,32.88,-111.76,69.01,38,75,6.93,1580180148
520,siddharthanagar,NP,1283621,27.5,83.45,59.34,72,0,2.64,1580180148
521,grindavik,IS,3416888,63.84,-22.43,33.8,79,90,16.11,1580180149
522,namie,JP,2111704,37.48,141.0,45.0,90,75,9.17,1580180149
523,karratha,AU,6620339,-20.74,116.85,84.7,76,25,10.42,1580180150
524,north platte,US,5697939,41.12,-100.77,33.8,74,90,3.36,1580180151
525,tatui,BR,3446692,-23.36,-47.86,73.99,49,28,1.99,1580180151
526,falam,MM,1326105,22.92,93.68,57.51,35,0,3.02,1580180152
527,grafton,US,4938048,42.21,-71.69,39.99,69,90,11.41,1580180152
528,jega,NG,2336237,12.22,4.38,64.92,14,2,11.05,1580180153
529,calamar,CO,3687972,10.25,-74.91,80.6,83,0,9.17,1580180154
530,marang,MY,1734715,5.21,103.21,82.4,78,40,3.36,1580180154
531,provost,CA,6113828,52.35,-110.27,21.81,95,100,2.33,1580180155
532,tiarei,PF,4033356,-17.53,-149.33,86.0,70,75,2.24,1580180155
533,hirara,JP,1862505,24.8,125.28,66.2,68,75,9.17,1580180156
534,quelimane,MZ,1028434,-17.88,36.89,77.81,82,64,4.85,1580180156
535,baruun-urt,MN,2032614,46.68,113.28,2.62,89,64,4.52,1580180157
536,gisborne,NZ,2206854,-38.65,178.0,86.31,34,0,4.7,1580180158
537,orel-izumrud,RU,803494,43.46,39.92,44.6,56,90,2.24,1580180159
538,turukhansk,RU,1488903,65.82,87.98,13.17,91,100,15.5,1580180159
539,homer,US,5864145,59.64,-151.55,10.4,65,75,8.05,1580180160
540,port jervis,US,5132016,41.38,-74.69,39.2,74,90,13.87,1580180161
541,kawalu,ID,1640902,-7.38,108.21,82.29,69,80,3.87,1580179980
542,meadow lake,US,5478673,34.8,-106.54,42.8,60,90,9.17,1580180163
543,payakumbuh,ID,1631905,-0.22,100.63,76.69,83,94,2.77,1580180163
544,juazeiro,BR,3397154,-9.41,-40.5,77.0,94,81,3.36,1580180164
545,poli,TZ,150689,-3.33,36.8,69.8,100,75,2.57,1580180164
546,sao joao da barra,BR,3448903,-21.64,-41.05,76.26,90,100,13.98,1580180165
547,carahue,CL,3896774,-38.7,-73.17,62.6,88,90,5.82,1580180165
548,granadilla de abona,ES,2517111,28.12,-16.58,61.0,67,20,14.99,1580180166
549,ambulu,ID,1621313,-8.35,113.61,82.35,80,0,5.06,1580180167
550,sao felix do xingu,BR,3388847,-6.64,-51.99,72.43,96,100,2.35,1580180167
551,kamaishi,JP,2112444,39.27,141.88,39.2,60,75,4.7,1580180168
552,ginir,ET,336454,7.13,40.7,60.28,92,100,0.63,1580180169
553,biak,ID,1637001,-0.91,122.88,82.69,77,87,3.04,1580180169
554,salsk,RU,499161,46.47,41.54,37.45,86,100,5.48,1580180170
555,ketou,BJ,2393551,7.36,2.6,69.46,89,0,0.63,1580180171
556,hauterive,FR,3013748,46.09,3.45,50.0,66,20,23.04,1580180172
557,bandarbeyla,SO,64814,9.49,50.81,75.4,71,42,27.09,1580180173
558,latung,PH,1707108,5.5,120.88,81.93,74,84,1.3,1580180173
559,hay river,CA,5972762,60.82,-115.8,12.2,92,90,5.82,1580180174
560,khash,IR,1160571,28.22,61.22,35.15,62,0,13.67,1580179588
561,san blas,MX,3987544,21.52,-105.27,62.6,82,40,5.82,1580180175
562,byron bay,AU,2172880,-28.65,153.62,91.99,74,90,8.05,1580180176
563,isiro,CD,215771,2.77,27.62,63.46,48,53,2.35,1580180176
564,gitega,BI,426271,-3.5,29.95,59.86,93,99,2.3,1580180177
565,hualmay,PE,3939761,-11.1,-77.61,70.59,81,100,5.55,1580180012
566,arenal,CO,3689653,8.46,-73.94,76.24,80,0,3.6,1580180178
567,talovaya,RU,484747,51.11,40.73,26.4,94,97,6.13,1580180179
568,aracuai,BR,3471846,-16.85,-42.07,70.02,97,100,1.9,1580179925
569,ajdabiya,LY,89113,30.76,20.23,61.18,77,0,14.45,1580180180
570,jacareacanga,BR,3397763,-6.22,-57.75,73.89,96,100,1.5,1580180180
571,buraydah,SA,107304,26.33,43.98,35.6,74,0,4.63,1580180181
572,cabedelo,BR,3404558,-6.98,-34.83,80.6,83,95,6.93,1580180181
573,alta floresta,BR,6316343,-9.88,-56.09,73.67,94,100,5.61,1580180182
574,moree,AU,2156927,-29.47,149.85,90.0,40,8,8.05,1580180183
575,liberal,US,5445820,37.04,-100.92,44.6,71,40,16.11,1580180183
576,pingliang,CN,1798760,35.54,106.69,25.61,52,13,2.13,1580179930
577,novokayakent,RU,518764,42.39,47.99,30.2,86,0,6.71,1580180184
578,virginia beach,US,4791259,36.85,-75.98,46.4,93,1,10.65,1580179646
579,yatou,CN,1786855,37.15,122.38,39.65,93,100,10.25,1580180185
580,leamington,CA,6051123,42.05,-82.61,36.0,80,90,3.36,1580179923
581,surgut,RU,1490624,61.25,73.42,-7.6,83,40,8.95,1580180187
582,svetlogorsk,BY,10722858,52.63,29.73,29.91,89,77,5.41,1580180187
583,murakami,JP,1856434,38.23,139.48,46.4,70,75,9.17,1580180188
584,camabatela,AO,2242885,-8.19,15.38,63.19,94,99,1.01,1580180188
585,trairi,BR,3386177,-3.28,-39.27,75.29,91,68,0.4,1580180189
586,saint george,US,5546220,37.1,-113.58,51.8,64,1,6.93,1580179944
587,khandyga,RU,2022773,62.67,135.6,-10.43,95,100,1.1,1580180191
588,sobolevo,RU,525426,54.43,31.9,28.78,97,100,4.97,1580180191
589,iquique,CL,3887127,-20.22,-70.14,75.2,73,75,5.82,1580180192
590,hyeres,FR,6451497,43.12,6.12,48.2,93,41,6.93,1580180192
591,assiniboia,CA,5887798,49.63,-105.98,26.69,90,100,6.64,1580180193
592,sarkand,KZ,1519691,45.41,79.92,21.06,92,96,2.3,1580180193
593,porangatu,BR,3453014,-13.44,-49.15,69.71,98,100,2.3,1580180194
594,sorland,NO,3137469,67.67,12.69,28.51,78,100,24.52,1580180195
595,whitehorse,CA,6180550,60.72,-135.05,10.4,85,40,3.36,1580180195
596,monzon,ES,3116224,41.91,0.19,44.01,93,90,2.24,1580180196
597,san andres,CO,3670218,12.58,-81.7,75.2,78,20,2.24,1580180141
598,klaebu,NO,7626381,63.3,10.48,39.2,74,75,2.24,1580180198
599,belen,TR,321572,36.49,36.22,48.0,100,75,4.7,1580180198
600,saint anthony,US,5044290,45.02,-93.22,23.0,92,90,4.7,1580180199
601,mahanoro,MG,1062553,-19.9,48.8,77.94,64,45,1.79,1580180200
602,sturgis,US,5011428,41.8,-85.42,33.8,94,90,6.22,1580180200
603,lavumisa,SZ,935051,-27.31,31.89,64.83,84,100,1.83,1580180201
604,thinadhoo,MV,1337610,0.53,72.93,81.14,76,87,15.68,1580180201
605,deputatskiy,RU,2028164,69.3,139.9,-32.28,69,18,6.44,1580180202
606,cortez,US,5418104,37.35,-108.59,33.8,59,1,12.75,1580180203
607,copiapo,CL,3893656,-27.37,-70.33,66.2,77,0,5.82,1580180122
608,madimba,TZ,878141,-10.4,40.33,80.98,86,93,10.58,1580180204
609,bajil,YE,77408,15.06,43.29,68.47,85,98,2.13,1580180205
610,bulgan,MN,2032201,48.81,103.53,8.02,76,34,2.15,1580180205
611,tocopilla,CL,3869716,-22.09,-70.2,63.37,62,7,0.74,1580180206
612,ripky,UA,695653,51.8,31.08,29.66,91,59,4.18,1580180206
613,santa maria,BR,3450083,-29.68,-53.81,75.2,73,20,9.17,1580180207
614,muisne,EC,3653967,0.6,-80.03,76.69,84,70,2.46,1580180208
615,bucyrus,US,5148635,40.81,-82.98,35.01,97,90,5.82,1580180209
616,kabanjahe,ID,1214965,3.1,98.49,86.0,74,20,6.93,1580180209
617,bambanglipuro,ID,1650434,-7.95,110.28,87.26,63,16,0.09,1580180210
618,elko,US,5703673,41.0,-115.5,37.4,74,75,2.59,1580180210
619,lalpur,IN,1265150,22.2,69.97,66.2,82,40,10.29,1580180213
620,fortuna,US,5563839,40.6,-124.16,55.4,82,90,5.82,1580180213
621,orshanka,RU,514739,56.92,47.89,-11.94,96,0,3.74,1580180214
622,mweka,CD,207596,-4.85,21.57,72.9,70,100,2.26,1580180215
623,gat,IL,293842,31.61,34.76,50.0,87,100,5.82,1580180195
624,moose factory,CA,6078372,51.26,-80.61,10.4,85,90,10.29,1580180216
625,belmonte,BR,3470137,-15.86,-38.88,77.0,94,75,2.24,1580179924
626,bowmore,US,4486983,34.94,-79.3,46.4,100,1,6.49,1580180217
627,beaufort,MY,1733874,5.35,115.75,84.2,83,75,6.93,1580180217
628,ola,RU,2122574,59.58,151.28,17.67,94,100,3.27,1580180218
629,hambantota,LK,1244926,6.12,81.12,76.95,74,100,16.17,1580180219
630,tubuala,PA,3700393,9.52,-79.03,75.2,83,40,2.24,1580180219
631,candelaria,PH,1719274,13.93,121.42,82.0,78,9,1.01,1580180220
632,shetpe,KZ,608324,44.17,52.12,33.03,88,50,2.53,1580180221
633,verkhneuralsk,RU,475463,53.88,59.21,10.4,66,75,11.18,1580180221
634,haysville,US,4272788,37.56,-97.35,39.99,82,90,13.87,1580180222
635,lar,IN,1265053,26.2,83.97,61.0,65,14,3.4,1580180223
636,sakhnovshchyna,UA,694919,49.15,35.87,30.78,87,72,5.26,1580180223
637,bella vista,US,4101114,36.43,-94.23,48.2,75,1,6.93,1580180224
638,upata,VE,3625710,8.01,-62.4,72.64,88,0,4.38,1580180224
639,westport,US,4845585,41.14,-73.36,42.8,60,90,6.93,1580180225
640,barao de melgaco,BR,3470871,-16.19,-55.97,84.2,70,35,3.36,1580180225
641,inuvik,CA,5983607,68.35,-133.72,-22.0,67,90,11.41,1580180226
642,te karaka,NZ,2184772,-38.47,177.87,86.31,34,0,4.7,1580180227
643,heyang,CN,1811764,26.1,107.47,41.56,65,45,5.01,1580180227
644,chandausi,IN,1274767,28.45,78.77,57.72,71,18,8.81,1580180228
645,ducheng,CN,1811929,23.24,111.53,43.0,79,96,4.0,1580180228
646,shitanjing,CN,1794971,39.23,106.34,27.7,66,0,2.77,1580180229
647,meulaboh,ID,1214488,4.14,96.13,81.36,76,82,6.02,1580180229
648,marystown,CA,6067472,47.17,-55.15,31.37,89,19,11.21,1580180230
649,aykino,RU,580182,62.22,49.99,-17.07,98,14,4.18,1580180231
650,camana,PE,3945985,-16.62,-72.71,68.16,87,97,5.93,1580180231
651,ambilobe,MG,1082243,-13.2,49.05,73.89,89,100,5.03,1580180232
652,coahuayana,MX,4013679,18.73,-103.68,69.8,64,5,6.06,1580180233
653,vanavara,RU,2013727,60.34,102.28,8.19,92,100,5.39,1580180234
654,manoharpur,IN,1263649,27.3,75.95,59.0,82,40,4.7,1580180234
655,pokhara,NP,1282898,28.23,83.98,55.33,53,0,2.08,1580180235
656,kokopo,PG,2093685,-4.35,152.26,84.25,76,83,16.55,1580180236
657,sangar,RU,2017215,63.92,127.47,-30.23,83,0,2.62,1580180237
658,lohardaga,IN,1264839,23.43,84.68,55.4,71,75,0.89,1580180035
659,sisimiut,GL,3419842,66.94,-53.67,-1.28,93,100,6.29,1580180238
660,pisco,PE,3932145,-13.7,-76.22,71.6,88,40,13.87,1580180238
661,makamba,BI,422232,-4.13,29.8,62.69,91,99,1.88,1580180239
662,paoua,CF,2383523,7.24,16.44,63.12,21,0,3.69,1580180239
663,leua,SK,3059101,48.22,18.61,34.0,100,90,3.36,1580180240
664,port pirie,AU,2063030,-33.18,138.02,77.0,57,0,12.75,1580180240
665,najran,SA,103630,17.49,44.13,42.8,52,5,1.81,1580180241
666,severobaykalsk,RU,2016910,55.65,109.32,15.84,74,0,12.5,1580180015
667,metro,ID,1635283,-5.11,105.31,84.88,73,100,6.11,1580179953
668,antsirabe,MG,1069166,-19.85,47.03,57.27,96,0,2.04,1580180243
669,preobrazheniye,RU,2017658,42.9,133.91,31.78,43,100,6.2,1580180243
670,ikauna,IN,1269805,27.55,81.97,57.61,75,0,9.17,1580180244
671,horki,BY,627905,54.29,30.98,28.27,97,100,4.7,1580180245
672,csanytelek,HU,721856,46.59,20.12,35.01,86,90,6.93,1580180245
673,manaure,CO,3675504,11.78,-72.44,80.6,78,40,4.7,1580180246
674,mandalgovi,MN,2030065,45.76,106.27,5.65,77,0,3.96,1580180247
675,chadiza,ZM,921028,-14.07,32.44,64.33,89,95,2.17,1580180247
676,anito,PH,1730622,12.45,125.29,81.28,70,37,1.99,1580180248
677,altoona,US,5178195,40.52,-78.39,34.0,74,90,12.75,1580180049
678,padilla,CO,3673407,3.22,-76.31,73.4,78,75,3.36,1580180249
679,tomatlan,MX,3981391,19.93,-105.25,63.05,93,0,1.95,1580180250
680,chapais,CA,5919850,49.78,-74.85,8.6,84,1,8.05,1580180250
681,rudbar,AF,1128239,30.15,62.6,39.29,67,0,11.7,1580180252
682,las tunas,CU,3550598,20.96,-76.95,69.8,88,88,1.12,1580180252
683,warangal,IN,1252948,18.0,79.58,70.92,81,66,11.12,1580180253
684,poltava,UA,696643,49.59,34.54,31.35,89,100,5.41,1580180253
685,coronado,US,5339663,32.69,-117.18,61.0,77,40,10.29,1580180254
686,qaqortoq,GL,3420846,60.72,-46.03,14.0,56,62,5.82,1580180254
687,sol-iletsk,RU,491019,51.16,54.99,0.01,94,0,8.32,1580180255
688,charleville-mezieres,FR,3026613,49.77,4.72,45.0,87,100,19.46,1580180256
689,guerrero negro,MX,4021858,27.98,-114.06,61.32,76,0,5.23,1580180256
690,zaliztsi,UA,687787,49.79,25.37,33.15,90,0,5.97,1580180257
691,praia da vitoria,PT,3372760,38.73,-27.07,64.4,93,75,31.97,1580180257
692,jandayan,PH,1710303,10.17,124.18,86.0,74,20,6.93,1580180258
693,cururupu,BR,3401148,-1.83,-44.87,74.25,98,100,0.96,1580180259
694,royan,FR,2982343,45.63,-1.03,51.8,81,67,18.34,1580180260
695,abnub,EG,362973,27.27,31.15,44.6,56,66,2.24,1580180260
